id,name,lat,long,type,adj_type
131746,Centre de Congressos d'Andorra la Vella,42.507019,1.522528,culture,culture
37111,Bas_lica Santuari de Meritxell,42.554748,1.590551,culture,culture
10016,Esgl폴sia de Sant Jaume d'Engordany,42.513035,1.539923,culture,culture
10026,Oratori de la Mare de D폴u de l'Ecologia,42.528797,1.587937,culture,culture
10038,Esgl폴sia de Sant Jaume dels Cortals,42.534329,1.603205,culture,culture
10050,Oratori de les Bons,42.538428,1.588119,culture,culture
7999,Centre Cultural i de Congressos Lauredi_,42.465117,1.490817,culture,culture
8001,Centre Cultural La Llacuna,42.50855,1.521904,culture,culture
71544,Teatre de les Fontetes,42.546634,1.514526,culture,culture
71551,Auditori Nacional d'Andorra,42.556877,1.534552,culture,culture
10078,Creu de Meritxell,42.557655,1.592103,culture,culture
10098,Esgl폴sia de Sant Andreu del Prat del Campanar,42.575426,1.481692,culture,culture
10106,Pont d'Ordino,42.608739,1.537553,culture,culture
13456,Capella de Sant Andreu,42.510347,1.530714,culture,culture
10094,Esgl폴sia de Sant Andreu d'Arinsal,42.572143,1.484004,culture,culture
10056,Esgl폴sia de Sant Ermengol,42.543556,1.522553,culture,culture
9992,Esgl폴sia de Sant Esteve de Bixessarri,42.48307,1.458495,culture,culture
10058,Esgl폴sia de Sant Iscle i Santa Vict_ria,42.545009,1.51414,culture,culture
10036,Esgl폴sia de Sant Joan de Sispony,42.533626,1.51595,culture,culture
9978,Esgl폴sia de Sant Juli_ i Sant Germ_,42.46377,1.490972,culture,culture
10032,Esgl폴sia de Sant Marc i Santa Maria,42.532982,1.572018,culture,culture
9990,Esgl폴sia de Sant Mart_ de Nagol,42.47493,1.493506,culture,culture
10048,Esgl폴sia de Sant Miquel de la Mosquera,42.535193,1.581777,culture,culture
10080,Esgl폴sia de Sant Miquel de Prats,42.560377,1.59396,culture,culture
10052,Esgl폴sia de Sant Rom_ de les Bons,42.538899,1.587053,culture,culture
10028,Esgl폴sia de Sant Rom_ de Vila,42.531254,1.567738,culture,culture
10020,Esgl폴sia de Sant Rom_ dels Vilars,42.51483,1.534734,culture,culture
10104,Esgl폴sia de Sant Serni de Llorts,42.596396,1.526638,culture,culture
10022,Esgl폴sia de Sant Antoni de la Grella,42.527642,1.520661,culture,culture
10086,Esgl폴sia de Sant Roc de Sorn_s,42.565078,1.527784,culture,culture
10082,Esgl폴sia de Sant Rom_ d'Erts,42.561867,1.496925,culture,culture
10092,Esgl폴sia de Sant Joan de Caselles,42.570863,1.607788,culture,culture
10088,Esgl폴sia de Sant Serni de Canillo,42.567514,1.597446,culture,culture
10096,Centre de Natura de la Cortinada,42.5744,1.519381,culture,culture
10060,Centre d'Interpretaci_ Andorra Rom_nica,42.54584,1.475115,culture,culture
10062,La Farga Rossell - Centre d'Interpretaci_,42.546315,1.521094,culture,culture
10042,Esgl폴sia de Santa Eul_lia d'Encamp,42.534766,1.576652,culture,culture
10076,Esgl폴sia de Sant Corneli i Sant Cebri_,42.556866,1.532851,culture,culture
10100,Esgl폴sia de Sant Mart_ de La Cortinada,42.576663,1.517776,culture,culture
10064,Esgl폴sia de Sant Climent de Pal,42.545974,1.475148,culture,culture
10044,Esgl폴sia de Sant Crist_fol d'Any_s,42.534974,1.524469,culture,culture
9984,Esgl폴sia de Sant Serni de Nagol,42.469549,1.501023,culture,culture
10010,Esgl폴sia de Sant Pere M_rtir,42.508778,1.541847,culture,culture
10014,Esgl폴sia de Sant Miquel d'Engolasters,42.511462,1.560447,culture,culture
10024,Pont de Sant Antoni de la Grella,42.527642,1.520661,culture,culture
132082,Centre d'Interpretaci_ del Comapedrosa CIC,42.571991,1.484056,culture,culture
8577,Galeria Art Vall,42.506727,1.534814,culture,culture
9964,Esgl폴sia de Sant Esteve de Juberri,42.439753,1.490202,culture,culture
9968,Capella de Sant Rom_ d'Auviny_,42.454341,1.46349,culture,culture
9970,Esgl폴sia de Sant Miquel de Fontaneda,42.454341,1.46349,culture,culture
9972,Capella de Sant Mateu de Pui d'Olivesa,42.459834,1.486017,culture,culture
9974,Esgl폴sia de Sant Pere d'Aixirivall,42.462752,1.501933,culture,culture
9966,Esgl폴sia de Sant Esteve del Mas d'Alins,42.442547,1.453997,culture,culture
9982,Capella de Sant Bartomeu,42.576861,1.667574,culture,culture
9986,Capella de la Mare de D폴u de les Neus de Llumeneres,42.472864,1.510409,culture,culture
9988,Santuari de Can_lich,42.480555,1.45343,culture,culture
8574,Galeria Art al Set,42.501402,1.509896,culture,culture
8578,Galeria d'Art - Taller Espai 29,42.5121,1.540063,culture,culture
8580,Galeria d'Art Pilar Riberaygua,42.507166,1.521384,culture,culture
8584,Galeria Desig(n),42.506994,1.521239,culture,culture
8586,Galeria Jardin Cosmique Andorra,42.512444,1.536356,culture,culture
9566,Sala d'exposicions del Com_ d'Encamp,42.536226,1.583281,culture,culture
9574,Sala d'exposicions Palau Empresa,42.566447,1.598098,culture,culture
137345,Sala d'exposicions del Pas de la Casa,42.546105,1.733844,culture,culture
137346,Sala d'exposicions i reunions d'Ordino,42.556428,1.532161,culture,culture
9994,Pont de la Margineda,42.484197,1.492019,culture,culture
9996,Esgl폴sia de Santa Coloma,42.494153,1.497513,culture,culture
9998,Esgl폴sia de Sant Vicen_ d'Enclar,42.495733,1.493781,culture,culture
10002,Esgl폴sia de Sant Esteve,42.507252,1.521715,culture,culture
10452,Restaurant Burger King,42.506132,1.532367,gastronomy,gastronomy
10454,Restaurant Burger King (Pas de la Casa),42.54139,1.732289,gastronomy,gastronomy
10456,Bar Cal Guti算rrez,42.532457,1.574714,gastronomy,gastronomy
10458,Snack-Bar Els tres amics,42.511526,1.540672,gastronomy,gastronomy
10462,Bar Clix算 Bar,42.508813,1.541492,gastronomy,gastronomy
10466,Bar Restaurant Delgado,42.475765,1.486813,gastronomy,gastronomy
10468,Bar El Bon Caf算,42.505268,1.527108,gastronomy,gastronomy
10470,Bar El Caliqueny娑,42.502581,1.52011,gastronomy,gastronomy
10472,Bar Restaurant El Rosat,42.542331,1.733624,gastronomy,gastronomy
10476,Pastisseria El Tortell I,42.505666,1.514769,gastronomy,gastronomy
10480,Bar restaurant Els Jardins,42.510973,1.540436,gastronomy,gastronomy
10482,Bar Engordany,42.511582,1.541535,gastronomy,gastronomy
10484,Bar Forcarey,42.512392,1.542203,gastronomy,gastronomy
10488,Frankfurt Cerni,42.508434,1.522304,gastronomy,gastronomy
10490,Frankfurt El Cobert,42.566139,1.59835,gastronomy,gastronomy
10492,Frankfurt El Maresme,42.466173,1.492891,gastronomy,gastronomy
10494,Frankfurt Les Rodes,42.49806,1.502281,gastronomy,gastronomy
10500,Frankfurt Pedralbes,42.507849,1.532657,gastronomy,gastronomy
10504,Bar Glass Bar,42.575556,1.671111,gastronomy,gastronomy
10506,Bar GR 11,42.537258,1.585961,gastronomy,gastronomy
10510,Granja El Goig,42.49574,1.499248,gastronomy,gastronomy
10512,Cafeteria Sucre d'Or,42.504645,1.524063,gastronomy,gastronomy
10518,Granja Pastisseria Nou Estil,42.464737,1.491668,gastronomy,gastronomy
10520,Granja Roc Arnau,42.534643,1.577514,gastronomy,gastronomy
10524,Restaurant Palanques,42.545761,1.514418,gastronomy,gastronomy
10530,Restaurant Parador Canaro,42.579037,1.658769,gastronomy,gastronomy
10532,Snack-Bar Sant Eloi,42.45796,1.486971,gastronomy,gastronomy
10538,Bar KSB,42.540758,1.731758,gastronomy,gastronomy
10540,Granja La Cantonada,42.497362,1.502343,gastronomy,gastronomy
10542,Bar Restaurant La Caulla,42.464984,1.489908,gastronomy,gastronomy
10548,Bar La Riverola,42.453418,1.48706,gastronomy,gastronomy
10550,Restaurant McDonald's,42.508521,1.533526,gastronomy,gastronomy
10552,Restaurant McDonald's,42.543509,1.732031,gastronomy,gastronomy
10554,Restaurant McDonald's (McAuto),42.505136,1.528076,gastronomy,gastronomy
10556,Restaurant McDonald's,42.45983,1.489063,gastronomy,gastronomy
10558,Restaurant El temple Itali娑,42.54305,1.734174,gastronomy,gastronomy
10560,Snack-Bar Off Piste,42.542224,1.730835,gastronomy,gastronomy
10568,Restaurant Pista Negra,42.543173,1.731854,gastronomy,gastronomy
10570,Bar Restaurant Pla de l'Estany,42.545397,1.514022,gastronomy,gastronomy
10574,Bar Pont dels Escalls,42.513551,1.534234,gastronomy,gastronomy
10576,Bar The Villager Tapas & Wine,42.576296,1.668515,gastronomy,gastronomy
10578,Bar Restaurant Cal Ruiz,42.544007,1.733329,gastronomy,gastronomy
10582,Bar El Cachirulo,42.507817,1.538172,gastronomy,gastronomy
10584,Snack-Bar Aparthotel Fijat,42.595049,1.52637,gastronomy,gastronomy
10586,Bo Bar,42.54241,1.733415,gastronomy,gastronomy
10588,Restaurant Valor,42.495446,1.498714,gastronomy,gastronomy
10590,Bar Restaurant Cent per Hora,42.461834,1.490689,gastronomy,gastronomy
10598,Granja Cafeteria Benvinguts,42.508578,1.540827,gastronomy,gastronomy
10600,Caf壻 de la Pla娑a - Bon Dia,42.506747,1.522382,gastronomy,gastronomy
10602,Bar Broques,42.533113,1.579086,gastronomy,gastronomy
10604,Restaurant Burger Roc,42.566574,1.599506,gastronomy,gastronomy
10606,Snack-Bar Ca l'Angel,42.464582,1.491753,gastronomy,gastronomy
10612,Snack-Bar Cal Juli娑,42.500097,1.508077,gastronomy,gastronomy
10614,Snack-Bar Cal Pinxo,42.497048,1.502018,gastronomy,gastronomy
10616,Bar Restaurant Can Jovi,42.497732,1.503282,gastronomy,gastronomy
10618,Snack-Bar Can娑lich,42.461254,1.489385,gastronomy,gastronomy
10620,Bar Casa Galicia,42.505984,1.514834,gastronomy,gastronomy
10622,Restaurant Casino,42.540082,1.519235,gastronomy,gastronomy
10626,Restaurant Pica Pica,42.508521,1.534771,gastronomy,gastronomy
10628,Bar Restaurant Cibercaf壻 Porquets Si,42.547148,1.51474,gastronomy,gastronomy
10632,Bar Cortals,42.542362,1.661232,gastronomy,gastronomy
10636,Bar Comet,42.553805,1.590394,gastronomy,gastronomy
10638,Bar Conte,42.515749,1.530812,gastronomy,gastronomy
10640,Bar Dakar,42.506558,1.517486,gastronomy,gastronomy
10644,Bar Mol娑,42.502739,1.513077,gastronomy,gastronomy
10648,Snack-Bar El Paran娑,42.508734,1.540114,gastronomy,gastronomy
10650,Restaurant El Passad娑s,42.510848,1.53371,gastronomy,gastronomy
10652,Bar El Pla de la Cot Ski & Lounge,42.533382,1.463842,gastronomy,gastronomy
10654,Bar El Pollastre Volador,42.543414,1.516982,gastronomy,gastronomy
10658,Bar El Siurell,42.544489,1.515791,gastronomy,gastronomy
10660,Bar Els Manyos,42.505169,1.52641,gastronomy,gastronomy
10662,Snack-Bar Esport,42.53324,1.524074,gastronomy,gastronomy
10664,Bar Restaurant Fenoy,42.468037,1.492384,gastronomy,gastronomy
10666,Bar Frema,42.511368,1.540715,gastronomy,gastronomy
10668,Bar Pensi娑 Garcia,42.506178,1.518023,gastronomy,gastronomy
10670,Bar Granada,42.535303,1.581884,gastronomy,gastronomy
10674,Bar Ivan,42.541659,1.518409,gastronomy,gastronomy
10676,Snack-Bar Juventus,42.507738,1.529342,gastronomy,gastronomy
10678,Snack-Bar La Barbacoa,42.508023,1.522186,gastronomy,gastronomy
10682,Bar La Bona Taula,42.55018,1.511382,gastronomy,gastronomy
10938,Granja Cal Franc壻s,42.56656,1.599506,gastronomy,gastronomy
10684,Bar Restaurant La Cabaneta,42.583226,1.662906,gastronomy,gastronomy
10940,Granja Combi,42.507714,1.529202,gastronomy,gastronomy
10686,Bar La Cala,42.533445,1.579792,gastronomy,gastronomy
10942,Granja El Resiner,42.506917,1.529911,gastronomy,gastronomy
10688,Snack-Bar La Clota,42.552922,1.528752,gastronomy,gastronomy
10692,Bar La G娑ndola,42.510648,1.533601,gastronomy,gastronomy
10694,Snack-Bar La Nina,42.465845,1.493347,gastronomy,gastronomy
10950,Granja Gaud娑,42.505666,1.520094,gastronomy,gastronomy
10696,Snack-Bar La Passa,42.467639,1.49299,gastronomy,gastronomy
10952,Bar Restaurant La Cuina Casolana,42.506971,1.530039,gastronomy,gastronomy
10698,Bar Restaurant La Pujada,42.506789,1.518227,gastronomy,gastronomy
10700,Snack-Bar La Rosa,42.560348,1.684424,gastronomy,gastronomy
10956,Granja Pastisseria La Palmera,42.506514,1.516776,gastronomy,gastronomy
10702,Restaurant La Sardana,42.506433,1.530554,gastronomy,gastronomy
10958,Granja La Plana,42.542362,1.511135,gastronomy,gastronomy
10704,Cafeteria La Terrassa (Centre Comercial Pyr算n算es),42.508252,1.523817,gastronomy,gastronomy
10960,Pastisseria Dol娑a,42.507224,1.519428,gastronomy,gastronomy
10706,Bar L'Abadia,42.507833,1.522315,gastronomy,gastronomy
10962,Granja L'Espiga d'Or,42.506773,1.530297,gastronomy,gastronomy
10710,Restaurant L'Anoia,42.506085,1.530554,gastronomy,gastronomy
10964,Granja Mat娑,42.510383,1.539011,gastronomy,gastronomy
10712,Bar Las Vegas,42.506702,1.529696,gastronomy,gastronomy
10966,Granja Mitja Lluna,42.50618,1.51504,gastronomy,gastronomy
10714,Snack-Bar Les Delicies,42.541959,1.734059,gastronomy,gastronomy
10968,Granja Pac娑fic,42.512236,1.539545,gastronomy,gastronomy
10716,Cafeteria Les Del娑cies del Jimmy,42.566226,1.598709,gastronomy,gastronomy
10970,Pastisseria La Magdalena,42.510213,1.532185,gastronomy,gastronomy
10720,Snack-Bar Lizarran,42.50841,1.529953,gastronomy,gastronomy
10972,Pastisseria La Lyonesa,42.507598,1.531439,gastronomy,gastronomy
10722,Bar Llac del Cubil,42.542362,1.661232,gastronomy,gastronomy
10974,Granja Pastisseria Xocolat娑,42.534821,1.579392,gastronomy,gastronomy
10976,Cafeteria Pitiusa (Hotel Pitiusa),42.509185,1.533108,gastronomy,gastronomy
10726,Bar L'Ona Blava,42.511591,1.537343,gastronomy,gastronomy
10978,Granja Rac娑 d'Enclar,42.497471,1.502692,gastronomy,gastronomy
10728,Restaurant Cafeteria L'Orri,42.507184,1.525855,gastronomy,gastronomy
10980,Snack-Bar Granja Roser,42.511692,1.534519,gastronomy,gastronomy
10732,La Bo橡te,42.509842,1.540157,gastronomy,gastronomy
10982,Granja Tuite 42,42.505739,1.528502,gastronomy,gastronomy
10736,Cafeteria Mac-Bar Punt de Trobada,42.448035,1.481756,gastronomy,gastronomy
10984,Granja Tramuntana,42.507453,1.520963,gastronomy,gastronomy
10738,Restaurant Macary,42.508584,1.52269,gastronomy,gastronomy
11378,Restaurant El Marselles,42.541226,1.732554,gastronomy,gastronomy
10986,Bar Verd i Blanc,42.504679,1.5157,gastronomy,gastronomy
10740,Bar Restaurant Margineda,42.479561,1.488836,gastronomy,gastronomy
11386,Restaurant El Rac娑 de la Fina,42.547239,1.514697,gastronomy,gastronomy
10990,Granja Xamfr娑,42.507508,1.520061,gastronomy,gastronomy
10742,Bar Restaurant Meritxell,42.470049,1.493119,gastronomy,gastronomy
10992,Restaurant Barcelona,42.476344,1.49009,gastronomy,gastronomy
10998,Bar Hotel Isard,42.50806,1.525206,gastronomy,gastronomy
10748,Bar Muntanya,42.464966,1.491775,gastronomy,gastronomy
11394,Restaurant El Xalet,42.572907,1.483916,gastronomy,gastronomy
10750,Cafeteria Ob壻lix,42.56642,1.469593,gastronomy,gastronomy
11396,Restaurant Els Pessons,42.574299,1.620532,gastronomy,gastronomy
11002,Bar Hotel La Planada,42.553998,1.532082,gastronomy,gastronomy
10752,Bar Off Piste,42.574801,1.481846,gastronomy,gastronomy
11398,Restaurant Els Teus Sentits,42.507216,1.520719,gastronomy,gastronomy
11004,Restaurant Hotel Peralba,42.476229,1.488716,gastronomy,gastronomy
10754,Bar Orelles,42.506496,1.53388,gastronomy,gastronomy
11400,Restaurant F娑brica de Gel,42.566329,1.598071,gastronomy,gastronomy
11006,Restaurant Hotel Roc de Sant Miquel,42.580973,1.663871,gastronomy,gastronomy
10756,Bar Fora de joc,42.509739,1.531016,gastronomy,gastronomy
11402,Restaurant La Braseria la Neu,42.60023,1.532078,gastronomy,gastronomy
11008,Restaurant Segle XX,42.581257,1.638079,gastronomy,gastronomy
10758,Cafeteria Panor娑mix,42.569644,1.477747,gastronomy,gastronomy
11010,Bar Jijonenca,42.508291,1.521628,gastronomy,gastronomy
11404,Restaurant Font Blanca,42.576877,1.517158,gastronomy,gastronomy
10760,Bar Hotel Parador de Can娑lich,42.474671,1.451595,gastronomy,gastronomy
11012,Granja La Gormanderia II,42.508533,1.538716,gastronomy,gastronomy
11406,Restaurant Fontanella,42.576731,1.667105,gastronomy,gastronomy
42530,Bar M娑n de Fantasia,42.532722,1.575687,gastronomy,gastronomy
11014,Granja pastisseria Les Caldes,42.509881,1.540693,gastronomy,gastronomy
10762,Bar Pasta Express de Neu,42.540892,1.733721,gastronomy,gastronomy
11408,Restaurant Gasp娑,42.550891,1.526034,gastronomy,gastronomy
42987,Bar Coto Restaurant,42.467292,1.49217,gastronomy,gastronomy
11020,Granja OP Pastisseria,42.546101,1.514139,gastronomy,gastronomy
137169,Bar Restaurant Cisco de Sans,42.507063,1.520414,gastronomy,gastronomy
43315,Bar Cerveseria Can娑lich,42.463301,1.488245,gastronomy,gastronomy
11410,Restaurant Gastron娑mic,42.536523,1.49163,gastronomy,gastronomy
10764,Restaurant Polar Base,42.574801,1.481846,gastronomy,gastronomy
137170,Cantina de la Adelita,42.507417,1.520829,gastronomy,gastronomy
43328,River Caf壻,42.454597,1.486916,gastronomy,gastronomy
137172,Bodega Albert,42.508804,1.521323,gastronomy,gastronomy
11022,Cafeteria Orxateria Valenciana,42.499978,1.508217,gastronomy,gastronomy
11412,Restaurant Andburger Zero,42.508173,1.522186,gastronomy,gastronomy
10768,Snack-Bar Quim,42.556818,1.533344,gastronomy,gastronomy
137187,Restaurant l'Isard,42.507961,1.525173,gastronomy,gastronomy
43441,Bar Taran娑,42.508748,1.53999,gastronomy,gastronomy
137192,Caf壻 l'Isard,42.507961,1.525173,gastronomy,gastronomy
11026,Cafeteria Pa amb Xocolata,42.464135,1.490718,gastronomy,gastronomy
11414,Restaurant Hotel Bruxelles,42.576944,1.666526,gastronomy,gastronomy
43443,Bar Hotel Tudel,42.508941,1.539349,gastronomy,gastronomy
137193,Restaurant Hotel Cervol,42.503042,1.513337,gastronomy,gastronomy
137199,Restaurant Monxi el Pirata,42.496386,1.500394,gastronomy,gastronomy
11028,Pastisseria Casal,42.535888,1.582283,gastronomy,gastronomy
43458,Snack-Bar Restaurant Cuco,42.511804,1.540645,gastronomy,gastronomy
11416,Restaurant Hotel Confort,42.586836,1.615841,gastronomy,gastronomy
10772,Snack-Bar Rac娑 d'en Tobira,42.50546,1.519032,gastronomy,gastronomy
137207,Restaurant Pastisseria l'Spigata,42.506498,1.522884,gastronomy,gastronomy
43480,Cafeteria Forn de Llenya Vilarrubla,42.50867,1.541234,gastronomy,gastronomy
11030,Pastisseria La Camarguesa,42.540394,1.733705,gastronomy,gastronomy
137209,Bar Restaurant Tapes i Mes,42.505581,1.516102,gastronomy,gastronomy
10774,Snack-Bar Restaurant Domenech,42.506842,1.518806,gastronomy,gastronomy
11418,Restaurant Hotel del Bisset,42.5429,1.523355,gastronomy,gastronomy
11036,Pixel Caf壻,42.541963,1.731752,gastronomy,gastronomy
137210,Caf壻 Noir,42.507711,1.531595,gastronomy,gastronomy
43483,Cafeteria Granja Mil fulls,42.509355,1.542616,gastronomy,gastronomy
137211,Forn de pa d'Antoni,42.506433,1.515782,gastronomy,gastronomy
10776,Snack-Bar L'Oregon,42.542441,1.734434,gastronomy,gastronomy
43498,Bar Lurdes,42.512414,1.541441,gastronomy,gastronomy
137212,Bar Restaurant Ponte de Lima,42.505872,1.517235,gastronomy,gastronomy
11038,Restaurant Quarts de Quinze,42.508204,1.521741,gastronomy,gastronomy
11422,Restaurant Hotel del Tarter,42.578793,1.649998,gastronomy,gastronomy
137254,Bar Restaurant Miquel,42.453208,1.487352,gastronomy,gastronomy
43500,Bar Residencia N娑ria,42.509146,1.541097,gastronomy,gastronomy
10778,Bar Restaurant Riau,42.512546,1.538875,gastronomy,gastronomy
137256,Cafeteria Art i Pa III,42.465243,1.490964,gastronomy,gastronomy
11424,Restaurant Hotel Diplom娑tic,42.505386,1.528712,gastronomy,gastronomy
11042,Bar Totaneta,42.507382,1.531852,gastronomy,gastronomy
137257,Restaurant Jaleo,42.510989,1.538244,gastronomy,gastronomy
137258,Restaurant Atl娑ntida (Hotel Metr娑polis),42.510261,1.540948,gastronomy,gastronomy
44537,Restaurant Pizzeria Angelo & Express,42.507428,1.533085,gastronomy,gastronomy
10780,Snack-Bar Ries Baixes,42.50512,1.526113,gastronomy,gastronomy
11046,Restaurant Big Ben,42.508125,1.535535,gastronomy,gastronomy
11426,Restaurant Hotel El Xalet,42.579733,1.650197,gastronomy,gastronomy
44538,Restaurant La Rabassa,42.447761,1.508746,gastronomy,gastronomy
137265,Restaurant Delicies Turques,42.508217,1.538245,gastronomy,gastronomy
11428,Restaurant Hotel Erts,42.561651,1.497772,gastronomy,gastronomy
10782,Bar Restaurant Roses,42.468039,1.493789,gastronomy,gastronomy
11048,Restaurant Blau Envalira,42.54207,1.73172,gastronomy,gastronomy
137267,Mama Dol娑a,42.512219,1.539166,gastronomy,gastronomy
10784,Bar Jocs Esportius Sant Juli娑,42.469616,1.493132,gastronomy,gastronomy
44539,Bar Amnesia,42.510135,1.532432,gastronomy,gastronomy
137268,Cafeteria La Ratatouille,42.510915,1.538861,gastronomy,gastronomy
137269,Bar Restaurant Santa Anna,42.509164,1.541588,gastronomy,gastronomy
11050,Restaurant Cant娑bric a Taula,42.465402,1.491233,gastronomy,gastronomy
11430,Restaurant Hotel Folch,42.467562,1.493623,gastronomy,gastronomy
44540,Restaurant Hotel Mila,42.533531,1.61051,gastronomy,gastronomy
137272,Snack-Bar Ancora,42.509976,1.54224,gastronomy,gastronomy
10786,Bar Salamanca,42.510126,1.541825,gastronomy,gastronomy
11432,Restaurant Hotel Galanthus,42.582498,1.663721,gastronomy,gastronomy
11052,Restaurant Casa del Bistec,42.50856,1.535983,gastronomy,gastronomy
44541,Bar L'Alternativa,42.50815,1.521841,gastronomy,gastronomy
10788,Bar Sant Rom娑,42.567038,1.489768,gastronomy,gastronomy
137274,Restaurant Koy Hermitage,42.575556,1.671111,gastronomy,gastronomy
44542,Restaurant Andburger Zero,42.536265,1.583022,gastronomy,gastronomy
137287,Restaurant La Tofana,42.575556,1.671111,gastronomy,gastronomy
10790,Bar Segle XXI,42.532836,1.576763,gastronomy,gastronomy
44544,Restaurant la Coma & Self-service,42.631596,1.48696,gastronomy,gastronomy
11436,Restaurant Hotel C壻ntric,42.508339,1.531348,gastronomy,gastronomy
137292,Restaurant Hotel Xalet Montana,42.576948,1.666083,gastronomy,gastronomy
137297,Restaurant Can Fontbernat,42.534384,1.58285,gastronomy,gastronomy
11056,Restaurant Cesar II,42.509161,1.54182,gastronomy,gastronomy
44545,Restaurant El Rac娑 del Prat de les Mines,42.601631,1.534695,gastronomy,gastronomy
10792,Bar Serra do Geres,42.50894,1.543134,gastronomy,gastronomy
137298,Bar Restaurant Funicamp,42.535615,1.587349,gastronomy,gastronomy
11438,Restaurant Hotel Cosmos,42.510118,1.53821,gastronomy,gastronomy
44547,Cafeteria D Delicios,42.507661,1.531674,gastronomy,gastronomy
10794,Bar Restaurant Sevilla,42.509322,1.542297,gastronomy,gastronomy
11058,Restaurant Chez Paulo,42.542951,1.735008,gastronomy,gastronomy
137301,Underground Bar,42.541503,1.731763,gastronomy,gastronomy
11440,Restaurant Hotel Kandahar,42.542046,1.731709,gastronomy,gastronomy
137309,Restaurant Bistrot,42.531902,1.573605,gastronomy,gastronomy
44554,Restaurant Andburger Zero,42.532118,1.695904,gastronomy,gastronomy
137310,Bar Xurrasqueria Mon娑anense,42.533863,1.580241,gastronomy,gastronomy
11060,Restaurant Cuina Manx娑ria Imperial,42.508307,1.540744,gastronomy,gastronomy
137311,Bar Cal l'Entrep娑,42.535931,1.492492,gastronomy,gastronomy
11442,Restaurant Hotel Les Truites,42.542971,1.734987,gastronomy,gastronomy
44555,Restaurant Hotel Mirtil,42.541813,1.732986,gastronomy,gastronomy
10802,Bar Restaurant Tarragona,42.505064,1.52593,gastronomy,gastronomy
137400,Restaurant Pastisseria l'Espiga d'Or,42.506773,1.530297,gastronomy,gastronomy
44556,Restaurant l'Husky,42.540862,1.731893,gastronomy,gastronomy
11446,Restaurant Hotel Montecarlo,42.532212,1.573877,gastronomy,gastronomy
10804,Bar Restaurant Terra Alta,42.506449,1.529406,gastronomy,gastronomy
137516,Snack-Bar Harlem,42.506732,1.520757,gastronomy,gastronomy
11064,Restaurant Delicius,42.507756,1.534138,gastronomy,gastronomy
44557,Underground Sports Bar and Grill,42.541683,1.732036,gastronomy,gastronomy
11448,Restaurant Hotel Naudi,42.577086,1.665963,gastronomy,gastronomy
137526,Restaurant Cal Sinquede,42.508327,1.521739,gastronomy,gastronomy
10806,Bar Tert娑lia,42.507696,1.53428,gastronomy,gastronomy
44558,Restaurant La Gratinada,42.540883,1.733738,gastronomy,gastronomy
11066,Restaurant Cubil,42.531777,1.698922,gastronomy,gastronomy
138018,Restaurant La Vita 壻 Vegan,42.510399,1.541987,gastronomy,gastronomy
10808,Bar Tinc 7,42.566455,1.598961,gastronomy,gastronomy
44560,Bar Winsord (Hotel Mercure),42.507775,1.527516,gastronomy,gastronomy
11068,Restaurant El Gran Caf算,42.505699,1.520045,gastronomy,gastronomy
11452,Restaurant Hotel Oros,42.536339,1.582332,gastronomy,gastronomy
138621,Hardbreak,42.507245,1.526054,gastronomy,gastronomy
44562,Restaurant La Borda,42.540705,1.733794,gastronomy,gastronomy
11454,Restaurant Emo - Hotel Palom算,42.565187,1.490855,gastronomy,gastronomy
11070,Restaurant El Mussol,42.510464,1.541187,gastronomy,gastronomy
44563,Restaurant Granja Camps Elisis,42.540705,1.733794,gastronomy,gastronomy
11456,Restaurant Hotel Paris,42.535896,1.581838,gastronomy,gastronomy
44564,Bar El Raval,42.507488,1.528972,gastronomy,gastronomy
11072,Restaurant El Proven娑al,42.539169,1.733372,gastronomy,gastronomy
10812,Bar Tres Estanys,42.531777,1.698922,gastronomy,gastronomy
11458,Restaurant Hotel Parma,42.54339,1.732728,gastronomy,gastronomy
11074,Restaurant El Rac娑 del Garr娑,42.533489,1.579902,gastronomy,gastronomy
44565,Bar Entre amics,42.504075,1.523066,gastronomy,gastronomy
10816,Bar Restaurant Tur娑stic,42.511922,1.535114,gastronomy,gastronomy
11460,Restaurant Hotel Pere d'Urg,42.534864,1.580288,gastronomy,gastronomy
11076,Bar El Rac娑 d'en Guizzi,42.505654,1.527749,gastronomy,gastronomy
44566,Cafeteria L'altra Grandalla,42.507349,1.530136,gastronomy,gastronomy
10818,Bar Valipas,42.534761,1.580025,gastronomy,gastronomy
11464,Restaurant Ermitage,42.465481,1.491528,gastronomy,gastronomy
11078,Restaurant El Rebost del Padr娑,42.506896,1.521099,gastronomy,gastronomy
44567,Bar l'Amic,42.504336,1.514594,gastronomy,gastronomy
10820,Snack-Bar Valireta,42.462754,1.49034,gastronomy,gastronomy
44574,Bar Pa I M算s,42.507553,1.521359,gastronomy,gastronomy
11080,Restaurant El Refugi (Hotel Tropical),42.512886,1.551229,gastronomy,gastronomy
11468,Restaurant Hotel Soldeu Maistre,42.577215,1.666269,gastronomy,gastronomy
10822,Bar Restaurant Ver娑n,42.466373,1.492545,gastronomy,gastronomy
11082,Restaurant El Refugi Alp娑,42.508964,1.529095,gastronomy,gastronomy
44575,Cafeteria Pastisseria Reina,42.507553,1.521359,gastronomy,gastronomy
11470,Restaurant El Rac娑 dels Avets - Hotel St. Gothard,42.566297,1.490368,gastronomy,gastronomy
10824,Snack-Bar Wi-Fi Caf壻,42.507429,1.527518,gastronomy,gastronomy
11084,Restaurant El Prat del Roure,42.510882,1.535988,gastronomy,gastronomy
44580,Cafeteria Santa Gloria,42.5079,1.533591,gastronomy,gastronomy
11472,Restaurant Hotel Sucar娑,42.574139,1.518471,gastronomy,gastronomy
10828,Bar Restaurant Xenius,42.469499,1.492939,gastronomy,gastronomy
44583,Cafeteria l'Spigata,42.50675,1.523319,gastronomy,gastronomy
11086,Restaurant Camp del Serrat,42.517434,1.568223,gastronomy,gastronomy
11474,Restaurant Hotel Univers,42.537026,1.582278,gastronomy,gastronomy
10830,Bar Stop Vermell,42.506067,1.528932,gastronomy,gastronomy
44584,Frankfurt del Toni,42.50658,1.517322,gastronomy,gastronomy
11088,Restaurant El Tall a Taula,42.507123,1.531254,gastronomy,gastronomy
11476,Restaurant Hotel Vall Ski,42.579773,1.659729,gastronomy,gastronomy
44585,Cafeteria La Botiga del T壻,42.508151,1.522528,gastronomy,gastronomy
10832,Creperia l'Iguana,42.566654,1.599458,gastronomy,gastronomy
11090,Restaurant El Teatre del Vi,42.531777,1.698922,gastronomy,gastronomy
11480,Restaurant Hotel Xalet Bringu算,42.61982,1.540039,gastronomy,gastronomy
44587,Bar Portugu壻s,42.504408,1.514688,gastronomy,gastronomy
11092,Restaurant Els Flocs,42.539465,1.733442,gastronomy,gastronomy
10834,Restaurant La Taverna de la Iaia,42.576966,1.667457,gastronomy,gastronomy
44589,Bar Restaurant Espanyol,42.505026,1.514361,gastronomy,gastronomy
11484,Restaurant Kronos (Fenix Hotel),42.509553,1.539615,gastronomy,gastronomy
10836,Granja Cafeteria Trilogia,42.532559,1.576954,gastronomy,gastronomy
11094,Restaurant Hotel Roc de Caldes,42.510632,1.547141,gastronomy,gastronomy
44593,Bar 3R Temps,42.505457,1.516846,gastronomy,gastronomy
11486,Restaurant Hotel Rutllan,42.547378,1.513238,gastronomy,gastronomy
11096,Restaurant Els Planells,42.631681,1.500527,gastronomy,gastronomy
10838,Snack-Bar Vermell i Negre,42.5056,1.523682,gastronomy,gastronomy
44596,Cafeteria l'Elixir,42.50771,1.52371,gastronomy,gastronomy
11488,Restaurant La Boh壻me,42.507864,1.523602,gastronomy,gastronomy
44598,Restaurant Pollastre R娑pid,42.504694,1.514824,gastronomy,gastronomy
11098,Restaurant 娑s Andorra (Andorra Park Hotel),42.50924,1.523066,gastronomy,gastronomy
10840,Restaurant Viena,42.495343,1.505299,gastronomy,gastronomy
11490,Restaurant La Borda Xica,42.544883,1.513736,gastronomy,gastronomy
11100,Restaurant La Cabana - Espiolets,42.578208,1.64619,gastronomy,gastronomy
44602,Hostel & Pub Barri Antic,42.506883,1.52099,gastronomy,gastronomy
10844,Frankfurt A On Anem,42.535595,1.582028,gastronomy,gastronomy
10408,Restaurant Abbasid D娑ner Kebab,42.508632,1.535267,gastronomy,gastronomy
44603,Cafeteria 42 Tu I Te,42.505773,1.528464,gastronomy,gastronomy
11492,Cafeteria La Brasserie,42.508378,1.527057,gastronomy,gastronomy
11102,Restaurant Eureka,42.508726,1.540189,gastronomy,gastronomy
10846,Caff壻 Di Fiore,42.508633,1.535859,gastronomy,gastronomy
10412,Bar Aqu娑 T'espero,42.511726,1.540594,gastronomy,gastronomy
11494,Restaurant La Braza,42.540892,1.733753,gastronomy,gastronomy
10414,Bar Arbre de Gel,42.534599,1.587085,gastronomy,gastronomy
11104,Restaurant Eximi,42.508054,1.522881,gastronomy,gastronomy
10416,Bar Armada,42.5049,1.514727,gastronomy,gastronomy
44607,Restaurant La Taverna d'Ali,42.506881,1.529877,gastronomy,gastronomy
11498,Restaurant La Caleta,42.577226,1.665361,gastronomy,gastronomy
10848,Bar Pulka,42.531777,1.698922,gastronomy,gastronomy
11106,Restaurant Fontanella (Hotel Exe Prisma),42.510522,1.539052,gastronomy,gastronomy
44608,Cafeteria Cigne & Delicious,42.463992,1.506151,gastronomy,gastronomy
11500,Restaurant La Cantina dels Racons,42.562469,1.590292,gastronomy,gastronomy
10850,Restaurant Borda de Conangle,42.441131,1.500406,gastronomy,gastronomy
44611,Bar Salta Lalinda,42.504536,1.514701,gastronomy,gastronomy
10420,Bar Restaurant El fill d'Ast壻rix,42.542939,1.731902,gastronomy,gastronomy
11502,Pizzeria La Capricciosa,42.542459,1.517305,gastronomy,gastronomy
44612,Bar Ranxo Apart,42.503497,1.513575,gastronomy,gastronomy
11110,Restaurant El Grill (Hotel Novotel),42.507603,1.527379,gastronomy,gastronomy
10852,Restaurant Borda de les Pubilles,42.46258,1.50197,gastronomy,gastronomy
10424,Bar del Centre,42.465253,1.490756,gastronomy,gastronomy
11504,Restaurant La Cava Ronaldo,42.508355,1.52195,gastronomy,gastronomy
44616,Bar Els Barrers,42.496677,1.498109,gastronomy,gastronomy
11112,Restaurant Helios (Hotel Delfos),42.508141,1.538451,gastronomy,gastronomy
10854,Restaurant Borda del Rector,42.582664,1.662712,gastronomy,gastronomy
11506,Restaurant La Coma Snowfood,42.629059,1.497882,gastronomy,gastronomy
44618,Restaurant El Burg,42.50457,1.51511,gastronomy,gastronomy
10426,Bar del Parc,42.534603,1.578662,gastronomy,gastronomy
11114,Restaurant Hong Kong,42.508889,1.536718,gastronomy,gastronomy
10430,Bar Jamaica,42.495736,1.499248,gastronomy,gastronomy
10856,Restaurant Borda del Tremat,42.534481,1.583163,gastronomy,gastronomy
11508,Restaurant La C娑pula (Hotel Plaza),42.506836,1.532335,gastronomy,gastronomy
44626,Bar Segura de la Serra,42.50557,1.514631,gastronomy,gastronomy
10858,Restaurant Borda d'Erts,42.561817,1.496243,gastronomy,gastronomy
44628,Bar Tam Tam,42.504201,1.515057,gastronomy,gastronomy
11510,Restaurant La Dama Blanca (Hotel Andorra Center),42.507681,1.520456,gastronomy,gastronomy
10432,Restaurant L'Estela,42.505165,1.51842,gastronomy,gastronomy
44637,Cafeteria Andorra 2000,42.506073,1.529479,gastronomy,gastronomy
10860,Restaurant Borda Estevet,42.503297,1.519555,gastronomy,gastronomy
11118,Restaurant Hotel Antic,42.58032,1.518885,gastronomy,gastronomy
11512,Restaurant La Dama del Llac,42.52187,1.570423,gastronomy,gastronomy
10434,Bar Restaurant Pic Nic,42.49225,1.496713,gastronomy,gastronomy
44648,Cafeteria La Yoghourteria by Danone,42.508948,1.534742,gastronomy,gastronomy
11120,Restaurant Hotel Arans,42.582182,1.518978,gastronomy,gastronomy
10436,Restaurant Tr壻vol Verd,42.499751,1.508866,gastronomy,gastronomy
11514,Restaurant La Font d'Arans,42.58232,1.519289,gastronomy,gastronomy
10862,Restaurant Borda l'Arena,42.47751,1.472608,gastronomy,gastronomy
44652,Restaurant Sol i Neu Club Hermitage,42.575867,1.669719,gastronomy,gastronomy
11122,Restaurant Hotel Babot,42.555038,1.540418,gastronomy,gastronomy
11516,Restaurant La Graella,42.541975,1.733769,gastronomy,gastronomy
10438,Restaurant Pontones,42.496096,1.502635,gastronomy,gastronomy
10864,Restaurant Borda l'Era del Rossell,42.553602,1.590453,gastronomy,gastronomy
44653,Restaurant Cal Bonavida,42.566501,1.600053,gastronomy,gastronomy
11124,Restaurant Hotel Bringu算,42.618723,1.539245,gastronomy,gastronomy
11518,Restaurant La Llum d'Oli,42.569071,1.488556,gastronomy,gastronomy
10442,Bar Versalles,42.508119,1.521652,gastronomy,gastronomy
44655,Restaurant El Rebost El Coll de la Botella,42.536523,1.49163,gastronomy,gastronomy
11520,Restaurant La Marmita,42.531777,1.698922,gastronomy,gastronomy
10444,Bar Vilar娑 II,42.593373,1.525549,gastronomy,gastronomy
11126,Restaurant Hotel Catalunya,42.541829,1.733308,gastronomy,gastronomy
44657,Restaurant La Taula dels Amics,42.565872,1.598074,gastronomy,gastronomy
11522,Restaurant Pizzeria La Mosquera,42.536501,1.583169,gastronomy,gastronomy
10446,Bar Benlloch 36,42.506607,1.518479,gastronomy,gastronomy
11128,Restaurant Celler d'en Toni,42.507117,1.531842,gastronomy,gastronomy
10448,Bar Bocateria Os d'or,42.506445,1.530624,gastronomy,gastronomy
11130,Restaurant Hotel Central,42.542916,1.733683,gastronomy,gastronomy
11524,Restaurant l'Ensegur,42.599679,1.531616,gastronomy,gastronomy
44658,Restaurant La Coma,42.579602,1.659126,gastronomy,gastronomy
10872,Restaurant La Llar de l'Artes娑 - Borda Popaire,42.559522,1.685831,gastronomy,gastronomy
44659,Restaurant Hotel Llop Gris,42.578119,1.648361,gastronomy,gastronomy
11526,Restaurant La Nova Forquilla,42.507793,1.53594,gastronomy,gastronomy
10450,Snack-Bar Eurocenter,42.46629,1.491745,gastronomy,gastronomy
10874,Restaurant Borda Raubert,42.559281,1.503268,gastronomy,gastronomy
11134,Restaurant Hotel Cims Pas,42.542347,1.734306,gastronomy,gastronomy
11532,Restaurant La Palmera de la Neu,42.576897,1.667068,gastronomy,gastronomy
44660,Restaurant Alberg Borda Jovell,42.536143,1.516434,gastronomy,gastronomy
10876,Restaurant Borda Vella,42.534888,1.579188,gastronomy,gastronomy
11136,Restaurant Hotel Coma,42.555887,1.535333,gastronomy,gastronomy
11534,Restaurant La Piazza Txindoki,42.507587,1.53144,gastronomy,gastronomy
44662,Restaurant Manacor Grill,42.579005,1.641378,gastronomy,gastronomy
10878,Restaurant La Borda de l'Avi,42.551515,1.510363,gastronomy,gastronomy
11138,Restaurant Hotel Coma-Bella,42.446503,1.494613,gastronomy,gastronomy
11536,Restaurant La Piazza II,42.507562,1.531456,gastronomy,gastronomy
44665,Restaurant Capriccioso,42.534772,1.53382,gastronomy,gastronomy
10880,Cafeteria 1978 Caf壻,42.508691,1.54068,gastronomy,gastronomy
11140,Restaurant Confort,42.542145,1.732342,gastronomy,gastronomy
44667,Restaurant La Cort de Popaire,42.577401,1.666639,gastronomy,gastronomy
11538,Restaurant La Pinosa,42.507777,1.534277,gastronomy,gastronomy
10882,Cafeteria Andorra Center,42.507671,1.520488,gastronomy,gastronomy
11142,Restaurant Co-Pr娑nceps,42.468223,1.49339,gastronomy,gastronomy
44676,Restaurant Merlot,42.577587,1.665186,gastronomy,gastronomy
11540,Restaurant Pizzeria La Plazzeta,42.508477,1.536839,gastronomy,gastronomy
10886,Cafeteria Rialb,42.61851,1.538966,gastronomy,gastronomy
44701,Restaurant Hotel Espel,42.51061,1.54204,gastronomy,gastronomy
11144,Restaurant Hotel Coray,42.535188,1.584949,gastronomy,gastronomy
11542,Restaurant La Relliscada,42.565852,1.597959,gastronomy,gastronomy
10888,Cafeteria Art i Pa,42.507081,1.519077,gastronomy,gastronomy
44703,Restaurant Andburger Zero,42.509106,1.537873,gastronomy,gastronomy
11146,Restaurant Hotel de Les Neus,42.543192,1.734177,gastronomy,gastronomy
10890,Cafeteria Art i Pa SL II,42.507079,1.530951,gastronomy,gastronomy
44711,Restaurant El Serch,42.512199,1.535392,gastronomy,gastronomy
11148,Restaurant Hotel Font d'Argent,42.541736,1.731999,gastronomy,gastronomy
44712,Restaurant Hotel Panorama,42.50778,1.540967,gastronomy,gastronomy
11546,Restaurant La Sangria,42.551958,1.590224,gastronomy,gastronomy
10892,Caf壻 de la Rep娑blica,42.544877,1.523793,gastronomy,gastronomy
11150,Restaurant Les Closes,42.508663,1.536895,gastronomy,gastronomy
44735,Restaurant Nogreda,42.500946,1.519072,gastronomy,gastronomy
10898,Caf算 Principal,42.462966,1.490962,gastronomy,gastronomy
11152,Restaurant Hotel Panda,42.543394,1.733372,gastronomy,gastronomy
44746,Restaurant Bar Nou,42.509705,1.531118,gastronomy,gastronomy
11548,Restaurant La Tagliatella,42.508647,1.537131,gastronomy,gastronomy
10900,Cafeteria Self-Service CCA,42.508282,1.530308,gastronomy,gastronomy
44748,Restaurant I娑 (Centre Wellness In娑u),42.51127,1.537525,gastronomy,gastronomy
11155,Restaurant Hotel S娑lvia d'Or,42.50858,1.527969,gastronomy,gastronomy
11550,Restaurant La Tapad'era,42.508117,1.538435,gastronomy,gastronomy
44749,Restaurant Oxalis,41.953669,2.639749,gastronomy,gastronomy
11156,Restaurant Hotel Sant Eloi,42.458155,1.487768,gastronomy,gastronomy
10908,Bar l'Autom娑bil (Hotel Tropical),42.512483,1.550789,gastronomy,gastronomy
11552,Restaurant La Taverna del Pa amb Tom娑quet,42.508679,1.539105,gastronomy,gastronomy
44758,Restaurant Hotel Sant Jordi,42.506434,1.518407,gastronomy,gastronomy
10910,Cafeteria Restaurant Marticella,42.508426,1.533666,gastronomy,gastronomy
11160,Restaurant Hotel Sporting,42.541714,1.733775,gastronomy,gastronomy
44759,Restaurant Font del Puial,42.506747,1.517038,gastronomy,gastronomy
11554,Restaurant La Taverna d'Excalibur,42.508742,1.54021,gastronomy,gastronomy
10914,Cafeteria Coll Blanc,42.533856,1.720304,gastronomy,gastronomy
11164,Restaurant Cheese's Art,42.508647,1.537979,gastronomy,gastronomy
44760,Restaurant Pizzeria Angelo & Friends,42.507336,1.533083,gastronomy,gastronomy
11556,Restaurant La Torrada,42.553063,1.487925,gastronomy,gastronomy
10916,Cafeteria Croissant Express,42.541734,1.732868,gastronomy,gastronomy
44761,Restaurant La Brasa d'en Josep,42.494074,1.499897,gastronomy,gastronomy
11166,Restaurant La Cirera,42.534597,1.587114,gastronomy,gastronomy
11558,Restaurant La Vaqueria,42.531777,1.698922,gastronomy,gastronomy
10918,Granja Diva,42.50995,1.531635,gastronomy,gastronomy
44769,Restaurant La Adelita Taqueria Cantina Mexicana,42.507764,1.52194,gastronomy,gastronomy
11168,Restaurant La Copa,42.541819,1.731825,gastronomy,gastronomy
11560,Restaurant L'Abarset,42.579031,1.649518,gastronomy,gastronomy
44771,Restaurant M算s Bo,42.509972,1.531451,gastronomy,gastronomy
10920,Cafeteria Dol娑 i Salat,42.510514,1.541085,gastronomy,gastronomy
11170,Restaurant La Cuina d'en Marvic,42.508691,1.54057,gastronomy,gastronomy
11562,Restaurant L'Aig娑eta,42.505191,1.525394,gastronomy,gastronomy
44772,Restaurant Aparthotel Font Verd,42.507347,1.530704,gastronomy,gastronomy
10922,Restaurant l'Arrosseria 2,42.555637,1.533433,gastronomy,gastronomy
11172,Restaurant La Di Roma,42.540924,1.733651,gastronomy,gastronomy
11564,Restaurant L'Arrosseria,42.507168,1.521413,gastronomy,gastronomy
44773,Restaurant L'Aquari,42.500273,1.517553,gastronomy,gastronomy
10924,Cafeteria El Rac娑 del Xurro,42.507018,1.528655,gastronomy,gastronomy
11174,Restaurant La Malagueta,42.542084,1.73165,gastronomy,gastronomy
44942,Restaurant Vietnam Gourmet,42.506615,1.530659,gastronomy,gastronomy
11568,Restaurant L'Entrec色te,42.509248,1.539443,gastronomy,gastronomy
10926,Pastisseria El Tortell III,42.50735,1.531788,gastronomy,gastronomy
11176,Restaurant La Raclette,42.541789,1.73223,gastronomy,gastronomy
44943,Restaurant Coma,42.506925,1.520784,gastronomy,gastronomy
11570,Restaurant L'Era d'en Jaume,42.596366,1.526912,gastronomy,gastronomy
11178,Restaurant La Taverna Italiana,42.508691,1.54006,gastronomy,gastronomy
45445,Granja Restaurant L'Estaci娑,42.505593,1.527784,gastronomy,gastronomy
11572,Restaurant L'Ermita,42.553883,1.590266,gastronomy,gastronomy
11182,Restaurant La Toscana (Hotel Tropical),42.512886,1.551229,gastronomy,gastronomy
45642,Bon Dia Caf算 Tem娑tic,42.508389,1.521566,gastronomy,gastronomy
45772,Ciber Caf壻 Selenites,42.508714,1.521395,gastronomy,gastronomy
11184,Restaurant L'Enoteca,42.510031,1.539752,gastronomy,gastronomy
11576,Restaurant Les Fargues,42.563167,1.526764,gastronomy,gastronomy
45783,Restaurant Nostrum S.L.,42.506762,1.530468,gastronomy,gastronomy
11186,Restaurant Les Barques,42.508527,1.535892,gastronomy,gastronomy
11580,Bar l'Estadi,42.502415,1.514611,gastronomy,gastronomy
45818,Restaurant Andorra Doner Kebab,42.50678,1.528792,gastronomy,gastronomy
11188,Restaurant McDonald's,42.507979,1.524892,gastronomy,gastronomy
11582,Borda Eulari,42.534937,1.524735,gastronomy,gastronomy
45831,Restaurant La terrassa del Sol娑,42.566261,1.598771,gastronomy,gastronomy
46075,Frankfurt Callaueta,42.506326,1.529112,gastronomy,gastronomy
11192,Restaurant Nou Vertical,42.556628,1.533637,gastronomy,gastronomy
11584,Restaurant L'Hort de Casa,42.561838,1.496402,gastronomy,gastronomy
46078,Restaurant Viena Escaldes,42.508743,1.53602,gastronomy,gastronomy
11194,Restaurant Pizzeria Magna,42.508125,1.529127,gastronomy,gastronomy
11586,Restaurant L'Hortell,42.631851,1.499709,gastronomy,gastronomy
46420,Vodka Bar,42.531712,1.698895,gastronomy,gastronomy
11196,Restaurant Pizzeria Primavera,42.507026,1.529996,gastronomy,gastronomy
11588,Restaurant Llac i Cel,42.521617,1.571345,gastronomy,gastronomy
46683,Restaurant El Kilombo,42.506245,1.518115,gastronomy,gastronomy
11198,Restaurant Pizzeria Uruguaia,42.462984,1.491147,gastronomy,gastronomy
11590,Restaurant L'Ovella,42.533848,1.587986,gastronomy,gastronomy
46938,Cafeteria La Caseta de xocolata,42.508748,1.53999,gastronomy,gastronomy
47038,Borda Casa Vella Pal算s,42.543661,1.523312,gastronomy,gastronomy
11200,Restaurant Pizzeria Ven壻cia,42.462614,1.491177,gastronomy,gastronomy
11592,Restaurant Ca la Lydia,42.544467,1.47836,gastronomy,gastronomy
11594,Restaurant Mallador del Guillem,42.535706,1.583233,gastronomy,gastronomy
11202,Restaurant Plat'in,42.507485,1.531799,gastronomy,gastronomy
68114,Cafeteria Caf算 Cal Pepo,42.512816,1.534898,gastronomy,gastronomy
11596,Restaurant Mama Mar娑a,42.50807,1.524965,gastronomy,gastronomy
11204,Restaurant Plat娑,42.507097,1.526434,gastronomy,gastronomy
68128,Cafeteria Hotel Naudi,42.576831,1.666104,gastronomy,gastronomy
78492,Piscolabis,42.508594,1.530707,gastronomy,gastronomy
11598,Restaurant Cal Marquet - La Viniteca,42.508632,1.535267,gastronomy,gastronomy
78502,Trattoria Il Figaro,42.507988,1.522233,gastronomy,gastronomy
11206,Restaurant Quo Vadis,42.573337,1.483382,gastronomy,gastronomy
11600,Restaurant Marquet Gourmeterie,42.509082,1.539717,gastronomy,gastronomy
93353,Restaurant Udon Andorra,42.508123,1.534116,gastronomy,gastronomy
11208,Restaurant Rac娑 d'en Josep,42.505306,1.519831,gastronomy,gastronomy
11602,Restaurant Memfis (Hotel Delfos),42.508082,1.538413,gastronomy,gastronomy
135147,Restaurant El Raco Burgues,42.555655,1.533073,gastronomy,gastronomy
11210,Restaurant R娑pid Pasta,42.539198,1.733319,gastronomy,gastronomy
136258,Aspen,42.576869,1.666837,gastronomy,gastronomy
11606,Restaurant Minim's,42.5072,1.520759,gastronomy,gastronomy
11214,Restaurant Reial Pirineus,42.542141,1.730958,gastronomy,gastronomy
136260,Bar 4 i Tres,42.505492,1.528386,gastronomy,gastronomy
11216,Restaurant Sport Hotel Village,42.576132,1.669034,gastronomy,gastronomy
136262,Buda Espai Andorra,42.50052,1.512471,gastronomy,gastronomy
11610,Restaurant El Mol娑 de la Pla娑a,42.572597,1.483995,gastronomy,gastronomy
11218,Restaurant 120,42.50845,1.53343,gastronomy,gastronomy
136371,Caf壻 Goa,42.54258,1.517299,gastronomy,gastronomy
11612,Restaurant Mol娑 del Peano,42.567835,1.602384,gastronomy,gastronomy
136387,Cerveseria L'Abadia,42.508078,1.521907,gastronomy,gastronomy
11220,Restaurant 1940 - Hotel Pyr算n算es,42.507414,1.519675,gastronomy,gastronomy
11614,Restaurant Mol娑 dels Fanals,42.533315,1.516312,gastronomy,gastronomy
136393,Blue Night,42.505466,1.528459,gastronomy,gastronomy
11224,Restaurant Hotel Abba Xalet Suites,42.532591,1.518441,gastronomy,gastronomy
136395,Cerveseria Ibeer,42.54193,1.731749,gastronomy,gastronomy
11226,Restaurant Piolets & Spa,42.577639,1.663914,gastronomy,gastronomy
136410,Cisco's,42.572725,1.48397,gastronomy,gastronomy
11618,Restaurant Origen,42.575617,1.670887,gastronomy,gastronomy
11228,Restaurant Al Solet d'It娑lia,42.508228,1.535514,gastronomy,gastronomy
136423,Discoteca Bilboard,42.541532,1.732034,gastronomy,gastronomy
11620,Restaurant Oriol,42.509193,1.53977,gastronomy,gastronomy
11232,Restaurant Pizzeria Angelo,42.50773,1.534261,gastronomy,gastronomy
136425,Discoteca 4ever,42.505565,1.519458,gastronomy,gastronomy
11622,Restaurant Pampa,42.578165,1.479391,gastronomy,gastronomy
136795,El Teu Espai Cocktail,42.508429,1.521231,gastronomy,gastronomy
11234,Restaurant Arlequ娑 Pizza,42.565819,1.597529,gastronomy,gastronomy
11624,Restaurant Papanico,42.50758,1.521521,gastronomy,gastronomy
136799,El Rana Bar,42.506484,1.53125,gastronomy,gastronomy
11236,Restaurant Arrels,42.575878,1.670183,gastronomy,gastronomy
11626,Restaurant Parador Santa Coloma,42.493547,1.497821,gastronomy,gastronomy
136800,El meu raconet,42.511785,1.540449,gastronomy,gastronomy
11238,Restaurant Arrosseria Pi de Migdia,42.578441,1.645994,gastronomy,gastronomy
136802,L'Albert Rabassut,42.577055,1.667309,gastronomy,gastronomy
11240,Restaurant Hotel i Termes Carlemany,42.509211,1.544384,gastronomy,gastronomy
11630,Restaurant Piolets Park & Spa,42.577592,1.664042,gastronomy,gastronomy
136804,Festa Andorra,42.50456,1.522194,gastronomy,gastronomy
11242,Restaurant Bamb娑 (Hotel Palarine),42.561501,1.497488,gastronomy,gastronomy
11634,Restaurant Pizzeria Angelo,42.545089,1.515073,gastronomy,gastronomy
11244,Restaurant Bellp娑,42.503825,1.514091,gastronomy,gastronomy
136808,La Birreria,42.507352,1.521513,gastronomy,gastronomy
11636,Restaurant Pizzeria Angelo,42.46939,1.492588,gastronomy,gastronomy
11246,Restaurant Benito,42.533133,1.579092,gastronomy,gastronomy
11640,Restaurant Pizzeria Casa Teva,42.500334,1.508026,gastronomy,gastronomy
136824,Lux娑ria Caf算 Teatre,42.506812,1.52096,gastronomy,gastronomy
11250,Restaurant La Cuina d'en Joan,42.546755,1.514053,gastronomy,gastronomy
136826,M娑n Bohemi,42.545876,1.516945,gastronomy,gastronomy
11642,Restaurant Pizzeria Coll d'Ordino,42.554074,1.533532,gastronomy,gastronomy
11252,Restaurant Bonet,42.545523,1.476452,gastronomy,gastronomy
136829,Milwaukee Pub,42.542117,1.731629,gastronomy,gastronomy
11644,Restaurant Pizzeria La Cantina,42.508206,1.521596,gastronomy,gastronomy
136830,Pikolo,42.505092,1.527491,gastronomy,gastronomy
11254,Restaurant Borda de l'Hort娑,42.579012,1.639429,gastronomy,gastronomy
11646,Restaurant Pizzeria La Mossegada,42.508964,1.529149,gastronomy,gastronomy
136836,Pub Xaloc,42.55668,1.533647,gastronomy,gastronomy
11256,Restaurant Buda Espai Andorra,42.500556,1.512659,gastronomy,gastronomy
136837,Pub Sensenom Rock,42.509355,1.530477,gastronomy,gastronomy
11652,Restaurant R娑stic Chic,42.507906,1.534272,gastronomy,gastronomy
136840,Pub Sagardotegi Herri,42.577837,1.479807,gastronomy,gastronomy
11258,Restaurant Bufet La Caubella,42.536523,1.49163,gastronomy,gastronomy
136841,Pub Polaris,42.507852,1.534425,gastronomy,gastronomy
11654,Restaurant Sagardotegui,42.573826,1.482883,gastronomy,gastronomy
11260,Restaurant Ski Plaza,42.565811,1.59739,gastronomy,gastronomy
136843,Pub La Gruta,42.509416,1.54061,gastronomy,gastronomy
11658,Restaurant Sancho - Panza,42.468012,1.493546,gastronomy,gastronomy
11262,Restaurant Ca la Conxita,42.508792,1.522307,gastronomy,gastronomy
136844,Pub Indiana,42.509482,1.545392,gastronomy,gastronomy
11660,Restaurant Self-Service Arinsal,42.534615,1.471653,gastronomy,gastronomy
11264,Restaurant Ca la Padrina Carmen,42.5675,1.601269,gastronomy,gastronomy
136845,Pub Iceberg,42.576735,1.667669,gastronomy,gastronomy
11664,Restaurant Self-Service Punt de Trobada,42.448035,1.481756,gastronomy,gastronomy
136852,Popaire&Pussycat Disco,42.577377,1.666612,gastronomy,gastronomy
11266,Restaurant Indalo,42.509952,1.531574,gastronomy,gastronomy
11666,Restaurant Serradells,42.499828,1.518549,gastronomy,gastronomy
11268,Restaurant Caf壻 la Resid壻ncia,42.543161,1.731833,gastronomy,gastronomy
136853,Pub Corinthia,42.508232,1.535431,gastronomy,gastronomy
11670,Restaurant Siracusa (Hotel Siracusa),42.509079,1.543323,gastronomy,gastronomy
136854,Quo Vadis Pub,42.573337,1.483382,gastronomy,gastronomy
11270,Restaurant Pizzeria Cal Lul娑,42.565819,1.597009,gastronomy,gastronomy
136855,Shusski Bar,42.533795,1.580304,gastronomy,gastronomy
11672,Restaurant Sol i Neu Fast Food,42.576205,1.667928,gastronomy,gastronomy
11272,Restaurant Cal Padr娑,42.541852,1.732195,gastronomy,gastronomy
136856,Tabola Club,42.54524,1.516027,gastronomy,gastronomy
11674,Restaurant Steak House - Gall de Bosc,42.577213,1.647906,gastronomy,gastronomy
11274,Restaurant Cal Silvino,42.545994,1.517057,gastronomy,gastronomy
136857,Surf Pizza,42.572417,1.483031,gastronomy,gastronomy
11678,Restaurant Tat娑,42.505191,1.525372,gastronomy,gastronomy
11276,Restaurant K l'Irina,42.506963,1.528661,gastronomy,gastronomy
136860,The Camden,42.509327,1.53667,gastronomy,gastronomy
11680,Restaurant Taverna Angel Belmonte,42.507421,1.530812,gastronomy,gastronomy
11280,Restaurant Cal Tonet,42.573097,1.518705,gastronomy,gastronomy
136861,Temple Bar,42.507753,1.535302,gastronomy,gastronomy
136879,Irish Pub (Hotel M娑gic),42.546913,1.515546,gastronomy,gastronomy
11682,Restaurant Taverna Comapedrosa,42.571924,1.483629,gastronomy,gastronomy
11282,Restaurant Caliu d'en Josep,42.536398,1.582723,gastronomy,gastronomy
136880,Sport Commencal,42.561628,1.496823,gastronomy,gastronomy
136882,Derby Irish Pub,42.571894,1.484565,gastronomy,gastronomy
11284,Restaurant C娑mping Borda Ansalonga,42.568289,1.521907,gastronomy,gastronomy
11684,Restaurant Taverna d'en Mallol,42.50701,1.531788,gastronomy,gastronomy
136883,La Tasca (Hotel Arinsal),42.573648,1.482994,gastronomy,gastronomy
136884,Pub Cheers,42.542486,1.517196,gastronomy,gastronomy
136888,Fill de Tapa,42.469495,1.493154,gastronomy,gastronomy
11286,Restaurant Can Benet,42.507261,1.520496,gastronomy,gastronomy
11686,Restaurant Tic Tapa,42.508367,1.535897,gastronomy,gastronomy
136895,Croma,42.541555,1.731497,gastronomy,gastronomy
11288,Restaurant Can Fontcuberta,42.536387,1.58369,gastronomy,gastronomy
136897,Video Pub Kyu,42.540671,1.731324,gastronomy,gastronomy
136898,Nemo (Hotel Llop Gris),42.578106,1.648428,gastronomy,gastronomy
136902,La Nau Blava,42.506026,1.532211,gastronomy,gastronomy
11690,Restaurant Topic,42.556511,1.534575,gastronomy,gastronomy
11290,Restaurant Can Manel,42.506403,1.515821,gastronomy,gastronomy
136927,Pub Camping Pla,42.566167,1.610184,gastronomy,gastronomy
136928,Havana Club,42.54237,1.731387,gastronomy,gastronomy
11692,Restaurant Trattoria Riba Escorxada,42.578441,1.645994,gastronomy,gastronomy
136930,Disco-Pub Mil.linium,42.509487,1.530513,gastronomy,gastronomy
11292,Restaurant Can Pep,42.582928,1.662691,gastronomy,gastronomy
136931,Restaurant Hotel Euro Esqu娑 E.T.,42.579095,1.657939,gastronomy,gastronomy
136936,Restaurant Hotel Refugi dels Isards,42.543279,1.735089,gastronomy,gastronomy
11694,Restaurant Trovi Punt de Trobada,42.448035,1.481756,gastronomy,gastronomy
136938,Bar Restaurant La Perla Negra,42.541767,1.731738,gastronomy,gastronomy
11294,Restaurant Can Pere,42.535422,1.524911,gastronomy,gastronomy
11696,Restaurant Valira (C娑mping),42.501703,1.515169,gastronomy,gastronomy
136939,Dylan's,42.579725,1.649518,gastronomy,gastronomy
11298,Restaurant El Cap Bo,42.508734,1.532335,gastronomy,gastronomy
136951,Pub-discoteca Tumbao,42.506628,1.534118,gastronomy,gastronomy
11700,Restaurant Versailles,42.50792,1.522079,gastronomy,gastronomy
136954,Madison Caf壻,42.540899,1.731786,gastronomy,gastronomy
136959,Pub Son Son,42.505971,1.517744,gastronomy,gastronomy
11300,Restaurant Carmen,42.475836,1.48732,gastronomy,gastronomy
11702,Restaurant Versi娑 Original V.O,42.544765,1.514955,gastronomy,gastronomy
136962,Restaurant Hotel Solana Arinsal,42.571347,1.486049,gastronomy,gastronomy
11302,Restaurant Casa Canut - La Barra del Canut,42.508568,1.535704,gastronomy,gastronomy
11704,Restaurant Vilarrasa,42.508272,1.521311,gastronomy,gastronomy
136966,Broc算liAnd,42.508031,1.522261,gastronomy,gastronomy
137020,Taverna a Batea,42.533708,1.580936,gastronomy,gastronomy
137021,Restaurant Alaska (Aparthotel Alaska),42.5417,1.731425,gastronomy,gastronomy
11304,Restaurant Casa Canut - La Grandalla dels Set P壻tals,42.50856,1.535704,gastronomy,gastronomy
11706,Restaurant San Telmo,42.465734,1.495101,gastronomy,gastronomy
137104,Restaurant Judith,42.543314,1.733028,gastronomy,gastronomy
11306,Bar Restaurant Casa Leon Armengol,42.556722,1.533226,gastronomy,gastronomy
137106,Restaurant Lizarran,42.541365,1.732675,gastronomy,gastronomy
137108,Restaurant El Xalet Suisse,42.541063,1.731557,gastronomy,gastronomy
137112,Restaurant El Fogo Negre,42.541989,1.731826,gastronomy,gastronomy
11710,Restaurant Solaris,42.541435,1.730176,gastronomy,gastronomy
137113,Restaurant Hotel Llac Negre,42.544702,1.73121,gastronomy,gastronomy
137116,Bar Rac娑 de l'Entrep娑,42.542032,1.734076,gastronomy,gastronomy
137117,Snack-Bar El Xalet,42.542984,1.734258,gastronomy,gastronomy
11712,Restaurant Sushi and Gong,42.508043,1.522707,gastronomy,gastronomy
137119,Restaurant Oh! Burger Lounge,42.541593,1.732696,gastronomy,gastronomy
137121,Bernardo Monteiro,42.541767,1.731741,gastronomy,gastronomy
11310,Restaurant Casa Teresa,42.507955,1.528832,gastronomy,gastronomy
137122,Paddy's Irish Bar,42.541553,1.732319,gastronomy,gastronomy
11714,Restaurant Taverna Americana,42.543461,1.732138,gastronomy,gastronomy
137130,La Taverna del Pas,42.543323,1.731925,gastronomy,gastronomy
11312,Restaurant Cava Moreneta,42.535633,1.581645,gastronomy,gastronomy
137131,Snack-Bar Manzano (Apartaments Tur娑stics Manzano),42.541808,1.730663,gastronomy,gastronomy
137132,Restaurant L'Entrecot de Fran娑a,42.54379,1.732167,gastronomy,gastronomy
11716,Restaurant Taverna Andaluza,42.506207,1.530814,gastronomy,gastronomy
137133,Restaurant Hotel La Cabana,42.552952,1.533135,gastronomy,gastronomy
11314,Restaurant Central Germans Ferreira,42.505596,1.525997,gastronomy,gastronomy
11720,Restaurant Taverna Cal Forest,42.508758,1.537238,gastronomy,gastronomy
137135,Casa Auviny娑,42.453412,1.492416,gastronomy,gastronomy
137136,Restaurant Aparthotel Rialb,42.617493,1.537913,gastronomy,gastronomy
11316,Restaurant Centre Comercial S娑per U,42.508289,1.530415,gastronomy,gastronomy
11722,Restaurant The Burger Lounge,42.508632,1.535267,gastronomy,gastronomy
11318,Restaurant Cerro Otto,42.56984,1.487614,gastronomy,gastronomy
137139,Restaurant Hotel Sant Miquel,42.568208,1.52154,gastronomy,gastronomy
11724,Restaurant Bar Xup Xup,42.508189,1.539191,gastronomy,gastronomy
137138,Celler Mas Berenguer,42.459707,1.485573,gastronomy,gastronomy
11322,Restaurant Cisco's,42.572778,1.483981,gastronomy,gastronomy
137143,Bar Restaurant Babi,42.55656,1.533835,gastronomy,gastronomy
11324,Restaurant Comtes d'Urgell (Hotel Comtes d'Urgell),42.510704,1.541176,gastronomy,gastronomy
137144,Restaurant Istanbul Kebab i Pizzeria,42.545416,1.514973,gastronomy,gastronomy
11732,Restaurant El Grill - Expresso,42.536523,1.49163,gastronomy,gastronomy
137145,La Taverna de Pal,42.535931,1.492492,gastronomy,gastronomy
137149,Restaurant R娑stic,42.535931,1.492492,gastronomy,gastronomy
137150,Refugi d'Arinsal,42.573616,1.469886,gastronomy,gastronomy
11326,Restaurant Caldea,42.511597,1.537338,gastronomy,gastronomy
11737,Snack-Bar Bufet Arinsal,42.573107,1.470905,gastronomy,gastronomy
137151,Borda Sabat算 1944,42.445663,1.475496,gastronomy,gastronomy
11742,Granja La Clariana,42.504281,1.51401,gastronomy,gastronomy
11328,Restaurant D算j娑 Vu,42.571914,1.484574,gastronomy,gastronomy
137153,Casa Beal,42.472395,1.497311,gastronomy,gastronomy
11744,Restaurant Lorenzo's,42.505499,1.518999,gastronomy,gastronomy
137157,Restaurant Luis XV (Hotel Diana Park),42.573994,1.482189,gastronomy,gastronomy
11332,Restaurant del Prat Gran,42.548338,1.512991,gastronomy,gastronomy
137158,Restaurant Hotel Xalet Verd娑,42.574732,1.48193,gastronomy,gastronomy
11746,Cafeteria Passatemps Dol娑,42.506864,1.525624,gastronomy,gastronomy
11334,Restaurant L'Oliv算,42.50771,1.531911,gastronomy,gastronomy
11750,Restaurant El Pa Torrat,42.506808,1.528883,gastronomy,gastronomy
11336,Restaurant Delizioso,42.532971,1.524096,gastronomy,gastronomy
137162,Restaurant Apartaments Tur娑stics Sant Rom娑,42.567222,1.489946,gastronomy,gastronomy
137163,Bar Ciutat Invicta,42.541588,1.5162,gastronomy,gastronomy
11754,Restaurant La Quadra,42.476378,1.488862,gastronomy,gastronomy
11338,Restaurant Deu Sol,42.586124,1.665158,gastronomy,gastronomy
137164,El Xiringuito de Pal,42.535931,1.492492,gastronomy,gastronomy
137166,Snack-Bar El Rac娑 dels Amics,42.542161,1.517366,gastronomy,gastronomy
137168,Cr娑pes and Go,42.535931,1.492492,gastronomy,gastronomy
11340,Restaurant Don Denis,42.508386,1.536407,gastronomy,gastronomy
11760,Bar Rac娑 d'en Pere,42.509043,1.542935,gastronomy,gastronomy
11342,Restaurant Don Pernil,42.494932,1.497703,gastronomy,gastronomy
11762,Bar Sinatra,42.508434,1.536326,gastronomy,gastronomy
11766,Pizzeria Cal Cub娑,42.506433,1.516054,gastronomy,gastronomy
11346,Restaurant Dos Ca娑adors,42.507524,1.522368,gastronomy,gastronomy
11768,Cafeteria Veritas,42.50811,1.528988,gastronomy,gastronomy
11348,Restaurant Dylan's,42.579928,1.651629,gastronomy,gastronomy
11770,Restaurant El Pi (Hotel Roc Blanc),42.509264,1.539438,gastronomy,gastronomy
11350,Restaurant El Bon Rac娑,42.495106,1.504494,gastronomy,gastronomy
14114,Restaurant The Family Arms,42.507496,1.522937,gastronomy,gastronomy
11352,Restaurant El Bosc,42.56979,1.487682,gastronomy,gastronomy
18064,Restaurant Eatalian Republic,42.50704,1.526075,gastronomy,gastronomy
11354,Restaurant El Carlit de Neu,42.54071,1.733775,gastronomy,gastronomy
18421,Restaurant Pas del Cabirol,42.577933,1.62904,gastronomy,gastronomy
11356,Restaurant El Carrer娑,42.53003,1.572536,gastronomy,gastronomy
18431,Restaurant El Saler,42.580575,1.640753,gastronomy,gastronomy
11358,Restaurant El Cresper,42.534682,1.580105,gastronomy,gastronomy
19676,Restaurant Piolet,42.577572,1.664482,gastronomy,gastronomy
11360,Restaurant El Crost娑,42.508159,1.522191,gastronomy,gastronomy
20707,Restaurant El Rebost Ib壻ric,42.508583,1.535268,gastronomy,gastronomy
11362,Restaurant El Cyrano de Bergerac,42.533943,1.580331,gastronomy,gastronomy
37473,Snack-Bar Pas 83,42.540804,1.731848,gastronomy,gastronomy
11364,Restaurant El Fais娑,42.507908,1.522285,gastronomy,gastronomy
37483,Bar Bo & Gola,42.541365,1.732678,gastronomy,gastronomy
11366,Restaurant Roc de les Bruixes - El Forn,42.56593,1.601536,gastronomy,gastronomy
37486,Bar Font Negre,42.542198,1.732591,gastronomy,gastronomy
37526,Little Rock Caf壻,42.53883,1.73325,gastronomy,gastronomy
37549,Bar Chez Andr算,42.542719,1.73453,gastronomy,gastronomy
11368,Restaurant El Gargantua,42.539477,1.73349,gastronomy,gastronomy
37691,Bar Restaurant La Borrufa,42.543335,1.732908,gastronomy,gastronomy
11370,Restaurant El Greco,42.507943,1.535511,gastronomy,gastronomy
37694,Bar El Comer娑,42.542193,1.73249,gastronomy,gastronomy
11372,Bufet El Grill (Grans Magatzem Pyr算n算es),42.508141,1.523709,gastronomy,gastronomy
37798,Bar Restaurant O Menjar Beure i Diversi娑,42.556516,1.535308,gastronomy,gastronomy
11374,Restaurant El Japo,42.508907,1.528738,gastronomy,gastronomy
39459,Snack-Bar El Bull,42.545625,1.514739,gastronomy,gastronomy
11376,Restaurant El Jard娑 (Hotel Mercure),42.507726,1.527459,gastronomy,gastronomy
39462,Sport Bar,42.534772,1.53382,gastronomy,gastronomy
39463,Bar Don Piacere (Sabors Familiars),42.547039,1.513696,gastronomy,gastronomy
39465,Cafeteria T de Te,42.545845,1.514239,gastronomy,gastronomy
39466,Pub Irland壻s M娑gic La Massana,42.54704,1.515309,gastronomy,gastronomy
39470,Cafeteria La Rialla,42.545027,1.514859,gastronomy,gastronomy
39484,Cusi Caf壻,42.541533,1.518012,gastronomy,gastronomy
39510,Bar Ski Caf壻,42.584632,1.470776,gastronomy,gastronomy
39698,Pub Irland算s Magic Canillo,42.560094,1.601805,gastronomy,gastronomy
39701,Restaurant Pizzeria l'Avet,42.544102,1.73466,gastronomy,gastronomy
39704,Bar Hotel les Terres,42.578859,1.628948,gastronomy,gastronomy
39737,Bar The Arp,42.566654,1.599458,gastronomy,gastronomy
39743,Bar Les Tres BBB,42.59688,1.676155,gastronomy,gastronomy
41241,Restaurant Refugi Les Portelles,42.627764,1.494364,gastronomy,gastronomy
42386,Bar Orlando,42.534374,1.585628,gastronomy,gastronomy
42429,Bar Tirant lo Blanc,42.535511,1.585396,gastronomy,gastronomy
42443,Cafeteria Fleca i Pastisseria l'Espiga,42.534199,1.579873,gastronomy,gastronomy
42509,Bar la Parada,42.531494,1.573338,gastronomy,gastronomy
42526,Bar Ankara Kebab Pizzes,42.532722,1.575687,gastronomy,gastronomy
11756,Restaurant L'Escenari de Pizzes,42.509834,1.531166,gastronomy,gastronomy
11344,Restaurant Pizzeria Donky,42.571413,1.470365,gastronomy,gastronomy
11650,Restaurant La Borda,42.573436,1.477747,gastronomy,gastronomy
10946,Granja Fleca Font,42.555611,1.532255,gastronomy,gastronomy
10514,Cafeteria Flor de Neu,42.532722,1.575932,gastronomy,gastronomy
10934,Cafeteria Fleca Font,42.507437,1.521542,gastronomy,gastronomy
10932,Cafeteria Fleca Font,42.545303,1.515244,gastronomy,gastronomy
10928,Cafeteria Fleca Font,42.53552,1.581559,gastronomy,gastronomy
10930,Cafeteria Fleca Font,42.508671,1.538,gastronomy,gastronomy
10948,Cafeteria Forn del Barri,42.506634,1.531332,gastronomy,gastronomy
10498,Frankfurt Cerveseria L娑ria,42.467337,1.493636,gastronomy,gastronomy
39473,Cafeteria Fred Oh!,42.545373,1.514135,gastronomy,gastronomy
137167,Fugazzeta,42.57154,1.48572,gastronomy,gastronomy
39668,Glassbar 1850,42.545185,1.733628,gastronomy,gastronomy
10954,Granja La Grandalla,42.507864,1.521129,gastronomy,gastronomy
10866,Restaurant Borda Pairal 1630,42.505701,1.521424,gastronomy,gastronomy
10868,Restaurant Borda Patxeta,42.565977,1.566067,gastronomy,gastronomy
11628,Restaurant del Llac de Pessons,42.531966,1.700209,gastronomy,gastronomy
11062,Restaurant Dehesa Santa Mar娑a,42.508632,1.535267,gastronomy,gastronomy
10564,Restaurant Pans & Company,42.508632,1.535267,gastronomy,gastronomy
11708,Restaurant Pizza Roma,42.508632,1.535267,gastronomy,gastronomy
11108,Restaurant Fresc Co,42.509174,1.527422,gastronomy,gastronomy
11608,Restaurant Mola Park,42.511194,1.53969,gastronomy,gastronomy
10672,Bar Igloo,42.570465,1.479721,gastronomy,gastronomy
138645,Bowling Lounge Andorra,42.504728,1.526209,leisure,entertain
135604,L'ess壻ncia de les Valls,42.468431,1.491658,leisure,entertain
135578,Can Sona,42.453749,1.463714,leisure,entertain
37079,Celler Mas Berenguer,42.459707,1.485573,leisure,entertain
19239,Cinemes Illa Carlemany,42.508686,1.534797,leisure,entertain
15830,360 Extrem - Centre freestyle indoor d'Andorra,42.498788,1.505604,leisure,entertain
9913,Bloc Caf壻,42.505278,1.518463,leisure,entertain
7468,Hotel Xalet la Pastorella,42.535002,1.528212,lodging,lodging
7470,Apartaments Moblats Administraci_ i Ger퐕ncia Les Abelletes,42.538295,1.733278,lodging,lodging
7472,Apartaments Moblats Ag퐕ncia Pedrous,42.540192,1.733671,lodging,lodging
7474,Apartaments Moblats Ag퐕ncia Trekking S.T.,42.541222,1.731859,lodging,lodging
7476,Apartaments Moblats Alt_ssim,42.541724,1.731437,lodging,lodging
7478,Apartaments Moblats Crest,42.541887,1.730392,lodging,lodging
7480,Apartaments Moblats Pas,42.541098,1.73135,lodging,lodging
7486,Apartaments Moblats Els Avets,42.542743,1.73183,lodging,lodging
7488,Apartaments Moblats Frontera Blanca II,42.538309,1.733273,lodging,lodging
7492,Apartaments Moblats Grif_ Vacances,42.538876,1.733246,lodging,lodging
7494,Apartaments Moblats Hola Andorra,42.515063,1.531543,lodging,lodging
7496,Apartaments Moblats Lauranna,42.550591,1.510919,lodging,lodging
7498,Apartaments Moblats LCB,42.538661,1.733281,lodging,lodging
7500,Apartaments Moblats Llorsa - La Solana,42.533819,1.588006,lodging,lodging
7502,Apartaments Moblats Maragall,42.507394,1.530154,lodging,lodging
7506,Apartaments Moblats Seturia,42.545367,1.474038,lodging,lodging
7510,Apartaments Moblats Solaris,42.54141,1.730175,lodging,lodging
7522,Apartaments Tur_stics Bonet,42.545646,1.475805,lodging,lodging
7528,Apartaments Tur_stics Cristiania,42.556404,1.532705,lodging,lodging
7112,Hotel Abba Suites Hotel,42.5333,1.51779,lodging,lodging
7532,Apartaments Tur_stics del Meligar,42.53276,1.576858,lodging,lodging
7114,Hotel Abba Xalet Suites,42.533162,1.517711,lodging,lodging
7538,Apartaments Tur_stics Giberga,42.542987,1.523178,lodging,lodging
7120,Hotel Exe Pr_ncep,42.507744,1.534205,lodging,lodging
7540,Apartaments Tur_stics K2,42.541224,1.730886,lodging,lodging
7122,Hotel Exe Prisma,42.50822,1.538606,lodging,lodging
7124,Hotel Andorra Center,42.507682,1.520488,lodging,lodging
7544,Apartaments Tur_stics La Neu II,42.600368,1.532173,lodging,lodging
7126,Hotel Andorra Palace,42.508359,1.527255,lodging,lodging
7548,Apartaments Tur_stics Manzano,42.540505,1.731354,lodging,lodging
7550,Apartaments Tur_stics Mitxeu,42.598396,1.529734,lodging,lodging
7128,Hotel Andorra Park Hotel,42.509442,1.523425,lodging,lodging
7130,Hotel Any_s Park,42.532917,1.523835,lodging,lodging
7554,Apartaments Tur_stics Prat de les Mines,42.600368,1.532951,lodging,lodging
7132,Aparthotel Arans Ordino 3000,42.581081,1.519032,lodging,lodging
7134,Hotel Arbre de Gel-ADG,42.534441,1.586793,lodging,lodging
7136,Hotel Arinsal,42.573648,1.482994,lodging,lodging
7560,Apartaments Tur_stics Sant Moritz,42.571747,1.484496,lodging,lodging
7138,Hotel Art Hotel,42.507214,1.527408,lodging,lodging
7562,Apartaments Tur_stics Sant Rom_,42.567222,1.489946,lodging,lodging
7144,Hotel Babot,42.555038,1.540418,lodging,lodging
7146,Hotel Barcelona,42.476113,1.490146,lodging,lodging
7566,Apartaments Tur_stics Vilar_,42.593364,1.525726,lodging,lodging
7148,Hotel Bellp_,42.503829,1.514091,lodging,lodging
7568,Apartaments Tur_stics Vilar_ II,42.593249,1.526015,lodging,lodging
7570,Aparthotel Alaska,42.5417,1.731425,lodging,lodging
7152,Hotel Bringu폴,42.618474,1.53895,lodging,lodging
7572,Aparthotel Annapurna,42.566467,1.524021,lodging,lodging
7154,Hotel El Pradet,42.618474,1.538944,lodging,lodging
7574,Aparthotel Any_s Park,42.533041,1.5241,lodging,lodging
7158,Hotel Cal Ruiz,42.543949,1.733222,lodging,lodging
7576,Aparthotel Casa Vella,42.554614,1.532123,lodging,lodging
7160,Hotel Camel.lot,42.54087,1.731046,lodging,lodging
7578,Aparthotel C_ndor,42.541524,1.732063,lodging,lodging
7162,Hotel Camp del Serrat,42.517247,1.567755,lodging,lodging
7580,Aparthotel Conseller,42.509857,1.546293,lodging,lodging
7582,Aparthotel Cosmos,42.509768,1.541009,lodging,lodging
7166,A Casa Canut Hotel Gastron_mic,42.50861,1.539888,lodging,lodging
7584,Aparthotel el Pedral,42.534633,1.579864,lodging,lodging
7586,Aparthotel el Serch,42.512206,1.535371,lodging,lodging
7168,Hotel Casado,42.54222,1.732364,lodging,lodging
7170,Hotel Cassany,42.50792,1.524836,lodging,lodging
7172,Hotel Catalunya,42.541797,1.73334,lodging,lodging
7590,Aparthotel Fijat,42.596282,1.526051,lodging,lodging
7174,Hotel Celler d'en Toni,42.507082,1.531712,lodging,lodging
7592,Aparthotel Fontverd,42.507433,1.530849,lodging,lodging
7176,Hotel Central,42.542939,1.733785,lodging,lodging
7178,Hotel C폴rvol,42.503042,1.513337,lodging,lodging
7596,Aparthotel Iceberg,42.512873,1.534991,lodging,lodging
7182,Hotel Cims,42.542356,1.734129,lodging,lodging
7598,Aparthotel La Neu,42.59944,1.53166,lodging,lodging
7600,Aparthotel Les Olimpiades,42.54054,1.73135,lodging,lodging
7184,Hotel Coma,42.555887,1.535333,lodging,lodging
7186,Hotel Coma Bella,42.446677,1.495046,lodging,lodging
7604,Aparthotel l'Orri de Rusca,42.531644,1.573327,lodging,lodging
7188,Hotel Comapedrosa,42.571949,1.483951,lodging,lodging
7606,Hotel Patagonia Austral,42.577778,1.479011,lodging,lodging
7190,Hotel Kyriad Comtes d'Urgell,42.510717,1.541189,lodging,lodging
7192,Hotel Confort d'Envalira,42.559122,1.686382,lodging,lodging
7608,Aparthotel Poblad_,42.573108,1.483739,lodging,lodging
7194,Hotel Confort,42.542364,1.732289,lodging,lodging
7610,Aparthotel Rialb,42.617607,1.538057,lodging,lodging
7616,C_mping Borda d'Ansalonga,42.565198,1.525044,lodging,lodging
7200,Hotel Cosmos,42.509768,1.541009,lodging,lodging
7618,C_mping Casal,42.567015,1.603091,lodging,lodging
7620,C_mping Internacional,42.533847,1.576583,lodging,lodging
7202,Hotel Crest,42.577183,1.479646,lodging,lodging
7622,C_mping Janramon,42.569188,1.605065,lodging,lodging
7204,Hotel Cristina,42.54087,1.731046,lodging,lodging
7626,C_mping Pla,42.566167,1.610184,lodging,lodging
7206,Hotel de les Neus,42.543036,1.734139,lodging,lodging
7628,C_mping Santa Creu,42.565412,1.600362,lodging,lodging
7208,Hotel de les Pistes,42.541608,1.73199,lodging,lodging
7630,C_mping Valira,42.50185,1.516155,lodging,lodging
7210,Hotel de l'Isard,42.508026,1.525243,lodging,lodging
7632,C_mping Xixerella,42.553041,1.488092,lodging,lodging
7212,Hotel del Bisset,42.54249,1.522884,lodging,lodging
7216,Hotel del Pui,42.547184,1.514869,lodging,lodging
7220,Tulip Inn Andorra Delfos Hotel,42.508155,1.538545,lodging,lodging
7644,Pensi_ Caliu d'en Josep,42.536445,1.582715,lodging,lodging
7222,Hotel Diana Parc,42.573994,1.482189,lodging,lodging
7646,Pensi_ els Escalls,42.513331,1.535503,lodging,lodging
7648,Pensi_ Garcia,42.50549,1.516113,lodging,lodging
7224,Hotel Diplom_tic,42.50527,1.527775,lodging,lodging
7650,Pensi_ La Rosa,42.507277,1.520383,lodging,lodging
7226,Hotel el Xalet,42.579534,1.649536,lodging,lodging
7652,Pensi_ Roser,42.51188,1.534956,lodging,lodging
7654,Resid퐕ncia Aldosa,42.543281,1.52278,lodging,lodging
7230,Hotel Erts,42.561536,1.497363,lodging,lodging
7658,Resid퐕ncia Benito,42.508549,1.53425,lodging,lodging
7232,Hotel Espel,42.510253,1.533567,lodging,lodging
7660,Resid퐕ncia Daina,42.565706,1.49068,lodging,lodging
7234,Hotel Eureka,42.508655,1.539982,lodging,lodging
7662,Resid퐕ncia Indalo,42.509891,1.53141,lodging,lodging
7664,Resid퐕ncia Serveis d'Hoteleria Finet,42.580396,1.648791,lodging,lodging
7666,Resid퐕ncia Serveis d'Hoteleria Finet 2,42.580396,1.648791,lodging,lodging
7668,Alberg Borda Jovell,42.536362,1.516475,lodging,lodging
7242,Hotel Festa Brava,42.508418,1.522494,lodging,lodging
7670,Alberg la Comella,42.50029,1.528897,lodging,lodging
7246,Hotel Folch,42.468136,1.493996,lodging,lodging
7674,Natur Refugi Cortals de Sispony,42.526944,1.486389,lodging,lodging
7676,Refugi Borda de Sorteny,42.622625,1.564135,lodging,lodging
7250,Hotel Font d'Argent Pas de la Casa,42.541611,1.73198,lodging,lodging
7678,Refugi Cabana de la Vall del Riu,42.595639,1.613198,lodging,lodging
7680,Refugi Cabana de Siscar_,42.595028,1.70597,lodging,lodging
7254,Hotel Gasp_,42.550891,1.526034,lodging,lodging
7682,Refugi de Cabana Sorda,42.611607,1.672414,lodging,lodging
7256,Gran Hotel Font,42.547109,1.513616,lodging,lodging
7684,Refugi de Claror,42.470144,1.563911,lodging,lodging
7686,Refugi de Comaubaga,42.60677,1.550525,lodging,lodging
7688,Refugi Comapedrosa,42.579029,1.449351,lodging,lodging
7690,Refugi Cabana de C_ms de Jan,42.618449,1.638779,lodging,lodging
7264,Hotel Guineu,42.540675,1.731345,lodging,lodging
7692,Refugi de Fontverd,42.492098,1.594511,lodging,lodging
7694,Refugi de Francol_,42.489924,1.426265,lodging,lodging
7266,Hotel Hesperia,42.508995,1.529004,lodging,lodging
7696,Refugi de Jucl_,42.607382,1.715725,lodging,lodging
7268,Hotel Him_laia Pas,42.540904,1.730934,lodging,lodging
7698,Refugi de Cabana de la Portella,42.57202,1.720525,lodging,lodging
7700,Refugi de l'Angonella,42.607964,1.496086,lodging,lodging
7702,Refugi dels Agols,42.511109,1.608926,lodging,lodging
7704,Refugi de les Fonts,42.590111,1.47893,lodging,lodging
7706,Refugi de l'Illa,42.495007,1.656434,lodging,lodging
7708,Refugi de Montmal_s,42.499198,1.68067,lodging,lodging
7710,Refugi de Perafita,42.479718,1.578246,lodging,lodging
7278,Hotel Mola Parc,42.511494,1.538708,lodging,lodging
7712,Refugi de Prat Primer,42.478471,1.550277,lodging,lodging
7714,Refugi de Rialb,42.640377,1.561245,lodging,lodging
7280,Hotel Husa Xalet Besol_,42.568504,1.489549,lodging,lodging
7282,Hotel Husa Xalet Verd_,42.574732,1.48193,lodging,lodging
7716,Refugi de Ribaescorjada,42.567645,1.641166,lodging,lodging
7718,Refugi del Pla de les Pedres,42.553653,1.678862,lodging,lodging
7284,Hotel Tropical,42.512878,1.551186,lodging,lodging
7720,Refugi d'Ensagents,42.517032,1.642044,lodging,lodging
7286,Hotel Jaume I,42.504471,1.514228,lodging,lodging
7722,Refugi Pla de l'Estany,42.594046,1.460502,lodging,lodging
7724,Refugi Riu dels Orris,42.485051,1.639777,lodging,lodging
7288,Hotel Kandahar,42.541374,1.732171,lodging,lodging
7726,Refugi Roca de Pimes,42.433707,1.53576,lodging,lodging
7290,Hotel La Burna,42.535732,1.516121,lodging,lodging
7728,Refugi de Collet Mart_,42.473056,1.468056,lodging,lodging
13697,Resid퐕ncia Jaume I,42.504106,1.514329,lodging,lodging
7292,Hotel La Cabana,42.552952,1.533135,lodging,lodging
34437,Refugi Borda Les Reineres d'Incles,42.592642,1.670741,lodging,lodging
7302,Hotel les 7 Claus,42.513871,1.533118,lodging,lodging
38513,Apartaments Moblats Esquirol,42.566654,1.599458,lodging,lodging
7304,Hotel Les Closes,42.508616,1.536852,lodging,lodging
38541,Xalet A.M.P Grup,42.567534,1.602579,lodging,lodging
7306,Hotel Les Fonts,42.50757,1.531045,lodging,lodging
38550,Apartaments Pisos a Dies,42.507927,1.5211,lodging,lodging
7310,Hotel les Truites,42.543173,1.734788,lodging,lodging
38551,Apartaments Tur_stics La Neu,42.600066,1.532546,lodging,lodging
7312,Hotel Llac Negre,42.544702,1.73121,lodging,lodging
38574,Apartaments Moblats Neres Pas,42.542332,1.730789,lodging,lodging
38575,Apartaments Moblats 3000,42.542367,1.731393,lodging,lodging
38738,Apartaments Moblats Enga퐫t,42.543744,1.732116,lodging,lodging
7316,Hotel M_gic Pas,42.542603,1.732152,lodging,lodging
38739,Hotel Mirtil,42.541813,1.732986,lodging,lodging
7318,Hotel M_gic La Massana,42.545659,1.51746,lodging,lodging
38740,Hotel Antic,42.575691,1.519196,lodging,lodging
7320,Hotel M_gic Andorra,42.509324,1.530297,lodging,lodging
7322,Hotel M_gic Canillo,42.563421,1.601418,lodging,lodging
38749,Resid퐕ncia Nuria,42.509146,1.541097,lodging,lodging
7326,Hotel Marfany,42.508726,1.536756,lodging,lodging
38750,Apartaments Moblats Dormir per Nits,42.51008,1.538786,lodging,lodging
38751,Pensi_ Rossell,42.509066,1.543737,lodging,lodging
7328,Hotel Mercure,42.507704,1.527663,lodging,lodging
42676,Casa Rural de les Arnes,42.534968,1.576744,lodging,lodging
7330,Hotel Meta,42.54289,1.732656,lodging,lodging
42690,Borda del Moll_,42.533531,1.61051,lodging,lodging
43092,Casa Mariola,42.564865,1.527369,lodging,lodging
7332,Hotel Metr_polis,42.510261,1.540948,lodging,lodging
97169,Zona d'acampada Font de Ferrosins,42.592642,1.670741,lodging,lodging
7338,Hotel Montan폴,42.572654,1.483896,lodging,lodging
7342,Hotel Mu,42.573326,1.518329,lodging,lodging
7344,Hotel Natur Marco Polo,42.543074,1.516682,lodging,lodging
102801,Hotel Valmar,42.508443,1.532698,lodging,lodging
102802,Aparthotel Sant Andreu,42.57595,1.481677,lodging,lodging
102803,Apartaments Moblats Mont Blanc,42.547985,1.515387,lodging,lodging
7348,Hotel Niunit,42.618507,1.538923,lodging,lodging
102857,Apartaments Tur_stics Xixerella,42.553269,1.488508,lodging,lodging
123295,Casa Rural Cal Batlle,42.576044,1.51867,lodging,lodging
7352,Hotel Novotel,42.507661,1.527676,lodging,lodging
126354,Hotel Eurostars Andorra Centre,42.50839,1.524709,lodging,lodging
126356,Hotel Cubil,42.542561,1.731532,lodging,lodging
7356,Hotel Ordino,42.555648,1.533525,lodging,lodging
126358,Hotel Ferreira,42.542726,1.733938,lodging,lodging
7358,Hotel Oriol,42.509165,1.539414,lodging,lodging
126364,Borda Rural de Conangle,42.442182,1.501974,lodging,lodging
7360,Hotel Oros,42.535216,1.585078,lodging,lodging
126373,Alberg Naturlandia,42.441145,1.500569,lodging,lodging
7362,Hotel Palarine,42.564499,1.492464,lodging,lodging
126376,Xalet Carlemany,42.564396,1.493417,lodging,lodging
7364,Hotel Palom폴,42.565,1.491278,lodging,lodging
126379,Pensi_ Barri Antic,42.506883,1.52099,lodging,lodging
7366,Hotel Panda,42.543489,1.733568,lodging,lodging
126380,Apartaments moblats P&C Apartaments,42.51012,1.531959,lodging,lodging
7368,Hotel Panorama,42.507858,1.54127,lodging,lodging
126381,Apartaments moblats Rentseason,42.506916,1.531751,lodging,lodging
7372,Hotel Parador de Can_lich,42.474572,1.451803,lodging,lodging
7376,Hotel Parma,42.543381,1.732741,lodging,lodging
7378,Hotel Peralba,42.476112,1.48867,lodging,lodging
126412,Apartaments tur_stics Can Font Bernat,42.534453,1.528751,lodging,lodging
126413,Apartaments moblats Com Casa,42.532335,1.576569,lodging,lodging
126414,Apartaments moblats M&P Gesti_ d'Apartaments,42.541906,1.730728,lodging,lodging
7384,Hotel Petit Hotel,42.543327,1.731629,lodging,lodging
126415,Apartaments moblats Ashome,42.564219,1.595661,lodging,lodging
7386,Hotel Pic Mai_,42.539902,1.720484,lodging,lodging
126420,Apartaments moblats Casa Armengol,42.582452,1.518044,lodging,lodging
7388,Hotel Pitiusa,42.508893,1.532869,lodging,lodging
7390,Hotel Plaza,42.506852,1.532303,lodging,lodging
7394,Hotel La Planada,42.553998,1.532082,lodging,lodging
130976,Casa Rural Casa Vella Garibaldi,42.54539,1.474247,lodging,lodging
130987,Hotel Continental,42.510914,1.541693,lodging,lodging
7396,Hotel President,42.50318,1.513442,lodging,lodging
130992,Apartaments l'Era d'Ayma,42.572883,1.483891,lodging,lodging
7398,Hotel Princesa Parc,42.574086,1.481784,lodging,lodging
130993,Apartaments Moblats Fercamp Vacances,42.571944,1.484003,lodging,lodging
7400,Hotel Pyr폴n폴es,42.507378,1.519777,lodging,lodging
131000,Xalet A.M.P Grup IV,42.553059,1.487392,lodging,lodging
131014,Apartaments moblats Grup A.M.P Promocions,42.568745,1.489491,lodging,lodging
7404,Hotel Refugi dels Isards,42.543279,1.735089,lodging,lodging
7406,Hotel Reial Pirineus (Palau Alp_),42.542327,1.73088,lodging,lodging
7410,Hotel Roc Blanc,42.509234,1.53945,lodging,lodging
7412,Hotel Roc de Caldes,42.51064,1.546991,lodging,lodging
7418,Hotel Rutllan,42.54739,1.513179,lodging,lodging
7420,Hotel Sant Eloi,42.458047,1.487658,lodging,lodging
7422,Hotel Sant Gothard,42.56465,1.491952,lodging,lodging
7424,Hotel Sant Jordi,42.506358,1.518425,lodging,lodging
7426,Hotel Sant Miquel,42.568399,1.52151,lodging,lodging
7428,Hotel Santa B_rbara de la Vall d'Ordino,42.556876,1.533574,lodging,lodging
7432,Hotel Siracusa,42.509055,1.54322,lodging,lodging
7438,Hotel Sol-Park,42.462189,1.488795,lodging,lodging
7440,Sport Hotel 4*,42.576056,1.669715,lodging,lodging
7442,Sport Hotel Hermitage & Spa 5*,42.575556,1.671111,lodging,lodging
7444,Sport Hotel Village 4*,42.576296,1.668515,lodging,lodging
7446,Hotel Sporting,42.541787,1.733635,lodging,lodging
7448,Hotel Sucar_,42.574127,1.518315,lodging,lodging
7450,Hotel Termes Carlemany,42.50913,1.543418,lodging,lodging
7452,Hotel T_voli,42.50775,1.531814,lodging,lodging
7454,Hotel Tudel,42.508679,1.539427,lodging,lodging
7462,Hotel Solana Arinsal,42.571347,1.486049,lodging,lodging
7464,Hotel Xalet Bringu폴,42.6188,1.539327,lodging,lodging
7238,Hotel Insitu Eurotel,42.51388,1.53308,lodging,lodging
7300,Hotel l'Ermita,42.553845,1.590553,lodging,lodging
7240,Golden Tulip Andorra F퐕nix Hotel,42.509507,1.539899,lodging,lodging
7434,Hotel Ski Plaza,42.565599,1.598321,lodging,lodging
7248,Hotel Font d'Argent Canillo,42.567309,1.600766,lodging,lodging
7354,Hotel Obaga Blanca,42.562948,1.593688,lodging,lodging
7150,Hotel Bonavida,42.566588,1.600154,lodging,lodging
7416,Hotel Roc del Castell,42.5675,1.601269,lodging,lodging
7588,Aparthotel Els Meners,42.570051,1.604887,lodging,lodging
7602,Aparthotel Llempo,42.566302,1.598805,lodging,lodging
7558,Apartaments Tur_stics Sant Bernat,42.565557,1.600045,lodging,lodging
126395,Apartaments tur_stics Casa Nova Regi,42.56667,1.599775,lodging,lodging
7556,Apartaments Tur_stics Roc del Castell,42.56698,1.601478,lodging,lodging
7672,Casa de Col_nies Aina,42.56969,1.605738,lodging,lodging
7308,Hotel Les Terres,42.577538,1.627803,lodging,lodging
102798,Apartaments Moblats Inter Esqu_,42.577619,1.628401,lodging,lodging
102799,Hotel Ransol,42.580516,1.635429,lodging,lodging
7430,Hotel Segle XX,42.581194,1.638347,lodging,lodging
7542,Apartaments Tur_stics Ona Dorada El Tarter,42.581312,1.639125,lodging,lodging
7314,Hotel Llop Gris,42.578106,1.648428,lodging,lodging
7350,Hotel N_rdic,42.578003,1.649802,lodging,lodging
7214,Hotel del Clos,42.58029,1.649039,lodging,lodging
7218,Hotel del Tarter,42.578301,1.649629,lodging,lodging
7530,Apartaments Tur_stics del Clos,42.577785,1.650164,lodging,lodging
7564,Apartaments Tur_stics Superior - El Tarter,42.578758,1.650743,lodging,lodging
38748,Apartaments Moblats Ag퐕ncia i Serveis Privats 2011,42.579599,1.650116,lodging,lodging
130973,Apartaments moblats Finques Carolina,42.579529,1.65216,lodging,lodging
126399,Apartaments moblats Fita Lloguer,42.579471,1.64952,lodging,lodging
44894,Apartaments moblats Pla_a,42.578678,1.650495,lodging,lodging
38543,Apartaments Moblats Xalet Sa_c,42.580149,1.651174,lodging,lodging
7508,Apartaments Moblats Solana de Ransol,42.581494,1.638969,lodging,lodging
130971,Apartaments moblats Vacances d'Or,42.578841,1.629198,lodging,lodging
126398,Apartaments moblats El Floc,42.580937,1.66086,lodging,lodging
19493,Alberg Mountain Hostel Tarter,42.579106,1.653244,lodging,lodging
7236,Hotel Euro Esqu_ E.T.,42.579095,1.657939,lodging,lodging
7252,Hotel Galanthus,42.582393,1.66435,lodging,lodging
7370,0Hotel Parador Canaro,42.579037,1.658769,lodging,lodging
7458,Hotel Vall Esqu_,42.579994,1.659944,lodging,lodging
7414,Hotel Roc de Sant Miquel,42.58097,1.664093,lodging,lodging
7524,Apartaments Tur_stics Borda Canaro,42.57807,1.657726,lodging,lodging
126421,Xalet tur_stic Terra del Cortal,42.58298,1.662793,lodging,lodging
126401,Apartaments moblats Novell II,42.579365,1.658837,lodging,lodging
126400,Apartaments moblats Sans Espais,42.580906,1.660849,lodging,lodging
7516,Apartaments Moblats Vacances Pirinenca,42.579482,1.642529,lodging,lodging
7270,Hotel Him_laia Soldeu,42.57669,1.667116,lodging,lodging
7116,Hotel Piolets,42.577061,1.667051,lodging,lodging
7118,Hotel Piolets Park & Spa,42.577625,1.664158,lodging,lodging
7346,Hotel Naudi,42.576916,1.666111,lodging,lodging
7382,Hotel Peretol,42.560493,1.682185,lodging,lodging
7436,Hotel Soldeu Maistre,42.577371,1.665984,lodging,lodging
7466,Hotel Xalet Montana,42.576948,1.666083,lodging,lodging
7156,Hotel Bruxelles,42.576938,1.666255,lodging,lodging
7594,Aparthotel Hort de Popaire,42.57758,1.665271,lodging,lodging
7536,Apartaments Tur_stics Els Llacs,42.559522,1.685831,lodging,lodging
102800,Apartaments Tur_stics Gla_,42.561034,1.683794,lodging,lodging
7552,Apartaments Tur_stics Pirineu,42.576592,1.668167,lodging,lodging
7520,Apartaments Tur_stics Bonell,42.578038,1.666438,lodging,lodging
7526,Apartaments Tur_stics Casa Vella Popaire,42.577671,1.665716,lodging,lodging
38741,Apartaments Moblats Pleta de Soldeu Tal,42.579599,1.650116,lodging,lodging
7512,Apartaments Moblats Soldeu Parad_s Evasi_,42.576857,1.667368,lodging,lodging
7258,Hotel Grau Roig,42.5325,1.701111,lodging,lodging
7262,Hotel Guillem,42.535639,1.5833,lodging,lodging
7198,Hotel Coray,42.534999,1.584048,lodging,lodging
7228,Hotel Encamp,42.531516,1.573177,lodging,lodging
7336,Hotel Mil_,42.532694,1.587163,lodging,lodging
7374,Hotel Par_s,42.535897,1.581838,lodging,lodging
7380,Hotel Pere d'Urg,42.534991,1.58025,lodging,lodging
7456,Hotel Univers,42.53709,1.582498,lodging,lodging
7614,Aparthotel Shusski,42.534995,1.587752,lodging,lodging
7272,Hotel Holiday Inn,42.505658,1.519839,lodging,lodging
7636,Hostal Cal Forner,42.507249,1.519394,lodging,lodging
7334,Hotel Micolau,42.571914,1.484574,lodging,lodging
7640,Hostal Palanques,42.545842,1.514407,lodging,lodging
126396,Casa Rural Borda Patxeta,42.567283,1.584762,lodging,lodging
7324,Hotel M_gic Ski,42.546939,1.513624,lodging,lodging
7340,Hotel Montecarlo,42.532144,1.573975,lodging,lodging
7274,Hotel C퐕ntric,42.508266,1.531144,lodging,lodging
7276,Hotel Imperial,42.468741,1.492655,lodging,lodging
9903,Esports Bringu_,42.618721,1.539199,nature,entertain
9926,Centre Eq뾴stre Nrdic Aventura,42.577809,1.6502,nature,entertain
9930,Club H낧ic l'Aldosa de La Massana,42.54885,1.525536,nature,entertain
9932,Rutes a cavall pel Parc Natural del Comapedrosa,42.579042,1.476706,nature,entertain
139009,Epic Andorra,42.495116,1.498189,nature,entertain
137019,Andorra 3000 Mountain Guides,42.496488,1.498567,nature,entertain
131049,Excursions del Pirineu,42.504496,1.524378,nature,entertain
131040,Gica'm Excursions,42.556666,1.53366,nature,entertain
44599,Tramuntanya,42.543756,1.523033,nature,entertain
44597,Xplorand,42.555101,1.532977,nature,entertain
44595,Peu de gat,42.535789,1.581941,nature,entertain
44578,Zerolimits Adventure Professionals,42.627764,1.494364,nature,entertain
43875,100% Natura - Guies de muntanya,42.549892,1.511669,nature,entertain
97563,VSL Sports (Viu Sense L낤its),42.462122,1.498815,nature,entertain
20524,Gicafer,42.554123,1.533532,nature,entertain
9901,Pas a Pas,42.533224,1.582809,nature,entertain
9895,Muntanya Activa,42.536384,1.582662,nature,entertain
9897,Guies d'Andorra - Natura i Aventura,42.566246,1.596558,nature,entertain
9889,Desconnecta i Aventura't,42.530271,1.599106,nature,entertain
9887,Experi끑cia en Muntanya,42.555461,1.532813,nature,entertain
9883,Ensagents Aventures,42.567778,1.601667,nature,entertain
9907,Heliand - Vols en helic텷ter,42.547022,1.519876,nature,entertain
9885,Excursionisme Vertical,42.556504,1.532292,nature,entertain
9891,Guies de Muntanya Adictes,42.506317,1.521835,nature,entertain
9893,"La Moixera, Educaci Ambiental",42.505883,1.516883,nature,entertain
18864,VOLTA'L- Andorra Segway Tour,42.54607,1.514838,nature,entertain
103483,MTB Aventures,42.546453,1.524095,nature,entertain
19702,Parador Canaro,42.579563,1.659402,nature,entertain
44944,Mushing Pirineus,31.658804,76.945289,nature,entertain
19314,Palau de Gel,42.56593,1.597832,nature,entertain
3083,Oficina de Turisme d'Andorra la Vella,42.508786,1.529126,services,services
3084,Oficina de Turisme d'Escaldes - Engordany,42.50913,1.542661,services,services
3085,Oficina de Turisme de Canillo,42.566438,1.599173,services,services
3086,Oficina de Turisme d'Encamp,42.536003,1.582061,services,services
12088,IF Rent / Lloguer de cotxes,42.50862,1.534455,services,services
3087,Oficina de Turisme de Pas de la Casa,42.54387,1.733858,services,services
12090,Cimex Auto-Rent,42.493773,1.498248,services,services
3088,Oficina de Turisme del Funicamp (Encamp),42.535311,1.588018,services,services
12094,Aparcament Prat de la Creu,42.506716,1.522489,services,services
3089,Oficina de Turisme d'Ordino,42.556485,1.532587,services,services
3090,Oficina de Turisme de La Massana,42.546789,1.514327,services,services
12096,Aparcament El Trill_,42.508635,1.525702,services,services
3091,Oficina de Turisme de Sant Juli_ de L_ria,42.466688,1.492413,services,services
12098,Aparcament Parc Central,42.507336,1.528033,services,services
3092,Agregadoria de Turisme i Comer_ d'Andorra a Madrid (Espanya),40.420433,-3.687534,services,services
12100,Aparcament Fener 1,42.507805,1.536675,services,services
97300,Aeroport de Toulouse - Blagnac,43.630686,1.373312,services,services
12102,Aparcament Fener 2,42.506941,1.532807,services,services
11772,Direct bus (Barcelona Ciutat),41.380154,2.139825,services,services
12104,Aparcament Tobira,42.504198,1.51894,services,services
11774,Alsa (Barcelona Ciutat),41.394632,2.182456,services,services
12106,Aparcament del Ribal,42.503006,1.51931,services,services
11776,Direct bus (Barcelona-Aeroport),41.307281,2.080196,services,services
12108,Aparcament de Salou,42.502541,1.514735,services,services
11778,Novatel (Barcelona-Aeroport),41.307281,2.080196,services,services
12110,Aparcament Comunal,42.502039,1.519364,services,services
11780,Alsa (Lleida),41.611749,0.62337,services,services
12112,Aparcament comunal de Meritxell,42.507534,1.523479,services,services
11782,Grup Montmantell - AVE (Lleida),41.611749,0.62337,services,services
12114,Aparcament comunal Dr. Mitjavila,42.510816,1.533328,services,services
11784,Grup Montmantell (La Seu d'Urgell),42.359105,1.459173,services,services
12116,Aparcament de la Canadilla,42.534821,1.576324,services,services
12118,Aparcament d'Encamp,42.53384,1.577439,services,services
11786,Grup Montmantell (Tarragona i Reus),40.991929,0.921521,services,services
12120,Aparcament Terres Primeres Alt,42.532971,1.578094,services,services
11788,Hispano Igualadina (Tarragona i Reus),41.147666,1.111465,services,services
11790,Novatel (Girona),41.979177,2.817532,services,services
12122,Aparcament Terres Primeres Baix,42.532884,1.578094,services,services
12124,Aparcament de la Palanqueta,42.534607,1.579338,services,services
11792,Damar Tours (Salamanca),40.970104,-5.66354,services,services
12126,Aparcament Prat de Bar_,42.533919,1.581613,services,services
11794,Cooperativa Interurbana (Espanya i Portugal),41.811667,-8.860195,services,services
12128,Aparcament Prat de Sant Miquel,42.534908,1.581098,services,services
11796,Grup Montmantell (L'Hospitalet Fran_a),42.588621,1.799692,services,services
12130,Aparcament Prat de les Bons,42.537052,1.584646,services,services
11798,Novatel (Toulouse - Aeroport Blagnac),43.611194,1.453518,services,services
12132,Aparcament Prat del Pont,42.535103,1.580459,services,services
11800,Centre M퐕dic - La Massana,42.544922,1.514892,services,services
12134,Aparcament Comunal del Complex,42.535963,1.581307,services,services
11802,Centre M퐕dic - Ordino,42.5564,1.534682,services,services
12136,Aparcament del Complex Esportiu,42.535793,1.581033,services,services
12138,Aparcament del Tremat,42.53456,1.583474,services,services
11804,Centre M퐕dic - Santa Coloma,42.493915,1.497778,services,services
12140,Aparcament dels Espialassos,42.534046,1.585164,services,services
11806,Centre M퐕dic - Encamp,42.536151,1.581414,services,services
12142,Aparcament dels Arinsols,42.536378,1.583287,services,services
11808,Centre M퐕dic - Escaldes-Engordany,42.509561,1.539856,services,services
12144,Aparcament Prat de l'Areny,42.537098,1.583748,services,services
11810,Centre M퐕dic - Fiter i Rossell,42.51498,1.531421,services,services
12146,Aparcament Mitjorn,42.537161,1.583673,services,services
11812,Centre M퐕dic - Pas de la Casa,42.545212,1.730867,services,services
12148,Aparcament del Riu Aixec,42.537208,1.584628,services,services
11814,Centre M퐕dic - Sant Juli_ de L_ria,42.465596,1.492397,services,services
12150,Aparcament Prat del Lla_ - Funicamp,42.535611,1.587503,services,services
11816,Centre M퐕dic - El Fener,42.507991,1.531402,services,services
12152,Aparcament de les Feixes,42.535437,1.588801,services,services
11818,Correus,42.507471,1.529838,services,services
12154,Aparcament de les Abelletes,42.538631,1.733179,services,services
11820,Correus,42.509543,1.539631,services,services
12156,Aparcament dels Copr_nceps,42.543714,1.732889,services,services
11822,Correus,42.545313,1.518618,services,services
12158,Aparcament Vertical,42.54573,1.730937,services,services
12160,Aparcament Pla_a del Consell,42.544868,1.731699,services,services
11824,Correus,42.536489,1.582584,services,services
11826,Correus,42.463261,1.491126,services,services
12162,Aparcament del Mai_,42.544726,1.733662,services,services
11828,Correus,42.541092,1.732238,services,services
12164,Aparcament Autocaravanes Pas de la Casa,42.544829,1.734982,services,services
12166,Aparcament del Bullidor,42.544765,1.734995,services,services
11830,Correus,42.566659,1.599616,services,services
12168,Aparcament la Closeta,42.544844,1.515437,services,services
11832,Correus,42.556469,1.532298,services,services
12170,Aparcament el Farr폴 Negre,42.546793,1.514493,services,services
11834,La Poste,42.507297,1.528347,services,services
12172,Aparcament de l'Hospital,42.51152,1.533996,services,services
11836,La Poste,42.566661,1.599149,services,services
12174,Aparcament Av. del Fener,42.507637,1.536638,services,services
11838,La Poste,42.536489,1.582584,services,services
12176,Aparcament de Caldea,42.511253,1.53792,services,services
11840,La Poste,42.543799,1.516532,services,services
12178,Aparcament de Les Teulades - Els Vilars,42.515204,1.532148,services,services
11842,La Poste,42.541092,1.732238,services,services
12180,Aparcament de la Carretera d'Engolasters,42.51758,1.570804,services,services
11844,La Poste,42.556858,1.533172,services,services
12182,Aparcament de Sant Jaume,42.513025,1.543032,services,services
11846,La Poste,42.469145,1.492435,services,services
12184,Aparcament Til.lari,42.512007,1.539674,services,services
11848,Parada de Taxi - Av. Meritxell,42.508204,1.530576,services,services
12186,Aparcament Pla_a Creu Blanca,42.510368,1.541879,services,services
11850,Parada de Taxi - Estaci_ autobusos,42.50547,1.527647,services,services
12188,Aparcament de les Bo퐫gues,42.507714,1.538917,services,services
11852,Parada de Taxi - Av. Carlemany,42.509132,1.542082,services,services
12190,Aparcament d'Autobusos del Prat Gran,42.509853,1.538993,services,services
11854,Parada de Taxi - Hospital de Meritxell,42.512109,1.534494,services,services
12192,Aparcament Prat del Roure,42.510727,1.535264,services,services
11856,Policia d'Andorra - Despatx Central,42.507433,1.538054,services,services
12194,Aparcament del Parnal,42.510387,1.538322,services,services
11858,Policia d'Andorra - Despatx Pas de la Casa,42.543957,1.73459,services,services
12196,Aparcament de les Nacions Unides,42.509802,1.53756,services,services
11860,Policia d'Andorra - Despatx de Sant Juli_ de L_ria,42.465299,1.490229,services,services
12198,Aparcament Clot d'Emprivat 19,42.509407,1.536423,services,services
11862,Policia d'Andorra - Despatx d'Encamp,42.534188,1.579649,services,services
12200,Aparcament Clot d'Emprivat 2,42.508912,1.537407,services,services
11864,Policia d'Andorra - Despatx de Canillo,42.566708,1.59968,services,services
12202,Aparcament Clot d'Emprivat 3,42.509051,1.538499,services,services
12204,Aparcament Comunal,42.51155,1.541055,services,services
11866,Policia d'Andorra - Despatx de La Massana,42.544852,1.515644,services,services
12206,Aparcament Comunal dos Valires,42.511813,1.53612,services,services
11868,Policia d'Andorra - Urgencies,42.507433,1.538054,services,services
12208,Aparcament Pla_a de l'Esglesia,42.508598,1.541677,services,services
11870,Rescat de Muntanya Andorra,42.494353,1.499687,services,services
12210,Aparcament L'Arenyeta,42.565843,1.601505,services,services
11872,SUM - Servei M퐕dic Urgent Andorra,42.512073,1.534108,services,services
12212,Aparcament Prat del Riu,42.565792,1.598559,services,services
11874,Bombers d'Andorra,42.494322,1.499655,services,services
12214,Aparcament dels Bassers,42.575949,1.669064,services,services
11876,Punt wi-fi Pla_a del Poble,42.506778,1.52228,services,services
12216,Aparcament dels Refugis,42.566815,1.602094,services,services
11878,Punt wi-fi Oficina de Turisme d'Andorra la Vella,42.50862,1.529206,services,services
12218,Aparcament vies ferrades,42.567731,1.596236,services,services
11880,Punt wi-fi Parc Central,42.506068,1.526262,services,services
12220,Aparcament de l'hortal,42.566929,1.598473,services,services
11882,Punt wi-fi Andorra Telecom,42.50828,1.532685,services,services
12222,Aparcament Sant Joan de Caselles,42.570779,1.607424,services,services
12224,Aparcament dels Arenys,42.566218,1.597057,services,services
11884,Punt wi-fi Biblioteca P_blica del Govern,42.505577,1.523327,services,services
12226,Aparcament inici del Toll Bullidor (Molleres),42.554548,1.588788,services,services
11886,Punt wi-fi Prat del Roure,42.510875,1.535908,services,services
12228,Aparcament Santuari de Meritxell,42.554369,1.59,services,services
11888,Punt wi-fi Oficina de Turisme d'Escaldes-Engordany,42.509094,1.542783,services,services
12230,Aparcament pistes del Tarter,42.579045,1.649521,services,services
11890,Punt wi-fi Biblioteca d'Escaldes-Engordany,42.510837,1.539137,services,services
12232,Aparcament Jan del Sastre,42.585391,1.664498,services,services
11892,Punt wi-fi Oficina de Turisme de Canillo,42.566287,1.599356,services,services
12234,Aparcament Comunal,42.576656,1.666408,services,services
11894,Punt wi-fi Com_ de Canillo,42.565903,1.601507,services,services
12236,Aparcament Prat de Call,42.556641,1.534967,services,services
11896,Punt wi-fi Biblioteca de Canillo,42.566021,1.601497,services,services
12238,Aparcament Camp de la Teneda,42.555121,1.533966,services,services
12240,Aparcament Prat de Vilella,42.555842,1.531852,services,services
11898,Punt wi-fi Centre de Congressos Lauredi_,42.465197,1.490396,services,services
11900,Punt wi-fi Pla_a de la Germandat,42.465126,1.490857,services,services
12242,Aparcament Clota part alta,42.553683,1.529433,services,services
11902,Punt wi-fi Oficina de Turisme de Sant Juli_ de L_ria,42.466605,1.492521,services,services
12244,Aparcament Clota part baixa,42.553487,1.528245,services,services
12246,Aparcament d'Arans,42.582288,1.518479,services,services
11904,Punt wi-fi Parc Infantil del Prat Gran,42.467811,1.492778,services,services
12248,Aparcament de Llorts,42.599825,1.532794,services,services
11906,Punt wi-fi Biblioteca de Sant Juli_ de L_ria,42.465067,1.490385,services,services
12250,Aparcament El Vilar,42.57453,1.51872,services,services
11910,Punt wi-fi Prat de Call,42.556531,1.535206,services,services
12252,Aparcament Les Massanelles,42.573551,1.518331,services,services
11912,Punt wi-fi carrer Major d'Ordino,42.556676,1.533649,services,services
12254,Aparcament Sorn_s,42.564008,1.527475,services,services
11914,Punt wi-fi Centre Esportiu d'Ordino,42.556423,1.532164,services,services
12256,Aparcament Cobert El Puiet,42.555955,1.536436,services,services
11916,Punt wi-fi Biblioteca d'Ordino,42.556085,1.534589,services,services
12258,Aparcament del Camp Gran,42.467222,1.493127,services,services
11918,Punt wi-fi Oficina de Turisme de la Massana,42.546712,1.514394,services,services
12260,Aparcament Freixes del Rabat_,42.465774,1.494071,services,services
12262,Aparcament Camp de Perot,42.462907,1.491295,services,services
11920,Punt wi-fi Pla_a de les Fontetes,42.546362,1.514698,services,services
12264,Aparcament Prat del Senzill,42.460724,1.489034,services,services
11922,Punt wi-fi Biblioteca de La Massana,42.547137,1.513903,services,services
12266,Aparcament de la Germandat,42.465089,1.490115,services,services
11924,Punt wi-fi Pla_a dels Ar_nsols,42.53622,1.583231,services,services
12268,Aparcament Peralba,42.472409,1.493518,services,services
11926,Punt wi-fi Complex esportiu d'Encamp,42.535891,1.580584,services,services
12270,Aparcament Crta. Fontaneda,42.46146,1.487086,services,services
11928,Punt wi-fi Biblioteca d'Encamp,42.535912,1.580626,services,services
12272,Aparcament del Trill_,42.468417,1.49435,services,services
11930,Punt wi-fi Centre Esportiu del Pas de la Casa,42.544365,1.733192,services,services
13415,Aeroport Lleida - Alguaire,41.727319,0.541978,services,services
13646,Estaci_ Barcelona Sants,41.37952,2.140624,services,services
13647,Estaci_ de Fran_a,41.383928,2.187093,services,services
