id,name,lat,long
10452,Restaurant Burger King,42.506132,1.532367
10454,Restaurant Burger King (Pas de la Casa),42.54139,1.732289
10456,Bar Cal Gutií©rrez,42.532457,1.574714
10458,Snack-Bar Els tres amics,42.511526,1.540672
10462,Bar Clixí© Bar,42.508813,1.541492
10466,Bar Restaurant Delgado,42.475765,1.486813
10468,Bar El Bon Cafí©,42.505268,1.527108
10470,Bar El Caliquenyíæ,42.502581,1.52011
10472,Bar Restaurant El Rosat,42.542331,1.733624
10476,Pastisseria El Tortell I,42.505666,1.514769
10480,Bar restaurant Els Jardins,42.510973,1.540436
10482,Bar Engordany,42.511582,1.541535
10484,Bar Forcarey,42.512392,1.542203
10488,Frankfurt Cerni,42.508434,1.522304
10490,Frankfurt El Cobert,42.566139,1.59835
10492,Frankfurt El Maresme,42.466173,1.492891
10494,Frankfurt Les Rodes,42.49806,1.502281
10500,Frankfurt Pedralbes,42.507849,1.532657
10504,Bar Glass Bar,42.575556,1.671111
10506,Bar GR 11,42.537258,1.585961
10510,Granja El Goig,42.49574,1.499248
10512,Cafeteria Sucre d'Or,42.504645,1.524063
10518,Granja Pastisseria Nou Estil,42.464737,1.491668
10520,Granja Roc Arnau,42.534643,1.577514
10524,Restaurant Palanques,42.545761,1.514418
10530,Restaurant Parador Canaro,42.579037,1.658769
10532,Snack-Bar Sant Eloi,42.45796,1.486971
10538,Bar KSB,42.540758,1.731758
10540,Granja La Cantonada,42.497362,1.502343
10542,Bar Restaurant La Caulla,42.464984,1.489908
10548,Bar La Riverola,42.453418,1.48706
10550,Restaurant McDonald's,42.508521,1.533526
10552,Restaurant McDonald's,42.543509,1.732031
10554,Restaurant McDonald's (McAuto),42.505136,1.528076
10556,Restaurant McDonald's,42.45983,1.489063
10558,Restaurant El temple Italiíæ,42.54305,1.734174
10560,Snack-Bar Off Piste,42.542224,1.730835
10568,Restaurant Pista Negra,42.543173,1.731854
10570,Bar Restaurant Pla de l'Estany,42.545397,1.514022
10574,Bar Pont dels Escalls,42.513551,1.534234
10576,Bar The Villager Tapas & Wine,42.576296,1.668515
10578,Bar Restaurant Cal Ruiz,42.544007,1.733329
10582,Bar El Cachirulo,42.507817,1.538172
10584,Snack-Bar Aparthotel Fijat,42.595049,1.52637
10586,Bo Bar,42.54241,1.733415
10588,Restaurant Valor,42.495446,1.498714
10590,Bar Restaurant Cent per Hora,42.461834,1.490689
10598,Granja Cafeteria Benvinguts,42.508578,1.540827
10600,CafíÂ de la Plaí_a - Bon Dia,42.506747,1.522382
10602,Bar Broques,42.533113,1.579086
10604,Restaurant Burger Roc,42.566574,1.599506
10606,Snack-Bar Ca l'Angel,42.464582,1.491753
10612,Snack-Bar Cal Juliíæ,42.500097,1.508077
10614,Snack-Bar Cal Pinxo,42.497048,1.502018
10616,Bar Restaurant Can Jovi,42.497732,1.503282
10618,Snack-Bar Caní_lich,42.461254,1.489385
10620,Bar Casa Galicia,42.505984,1.514834
10622,Restaurant Casino,42.540082,1.519235
10626,Restaurant Pica Pica,42.508521,1.534771
10628,Bar Restaurant CibercafíÂ Porquets Si,42.547148,1.51474
10632,Bar Cortals,42.542362,1.661232
10636,Bar Comet,42.553805,1.590394
10638,Bar Conte,42.515749,1.530812
10640,Bar Dakar,42.506558,1.517486
10644,Bar Molí_,42.502739,1.513077
10648,Snack-Bar El Paraníæ,42.508734,1.540114
10650,Restaurant El Passadí_s,42.510848,1.53371
10652,Bar El Pla de la Cot Ski & Lounge,42.533382,1.463842
10654,Bar El Pollastre Volador,42.543414,1.516982
10658,Bar El Siurell,42.544489,1.515791
10660,Bar Els Manyos,42.505169,1.52641
10662,Snack-Bar Esport,42.53324,1.524074
10664,Bar Restaurant Fenoy,42.468037,1.492384
10666,Bar Frema,42.511368,1.540715
10668,Bar Pensií_ Garcia,42.506178,1.518023
10670,Bar Granada,42.535303,1.581884
10674,Bar Ivan,42.541659,1.518409
10676,Snack-Bar Juventus,42.507738,1.529342
10678,Snack-Bar La Barbacoa,42.508023,1.522186
10682,Bar La Bona Taula,42.55018,1.511382
10938,Granja Cal FrancíÂs,42.56656,1.599506
10684,Bar Restaurant La Cabaneta,42.583226,1.662906
10940,Granja Combi,42.507714,1.529202
10686,Bar La Cala,42.533445,1.579792
10942,Granja El Resiner,42.506917,1.529911
10688,Snack-Bar La Clota,42.552922,1.528752
10692,Bar La Gí_ndola,42.510648,1.533601
10694,Snack-Bar La Nina,42.465845,1.493347
10950,Granja Gaudí_,42.505666,1.520094
10696,Snack-Bar La Passa,42.467639,1.49299
10952,Bar Restaurant La Cuina Casolana,42.506971,1.530039
10698,Bar Restaurant La Pujada,42.506789,1.518227
10700,Snack-Bar La Rosa,42.560348,1.684424
10956,Granja Pastisseria La Palmera,42.506514,1.516776
10702,Restaurant La Sardana,42.506433,1.530554
10958,Granja La Plana,42.542362,1.511135
10704,Cafeteria La Terrassa (Centre Comercial Pyrí©ní©es),42.508252,1.523817
10960,Pastisseria Dolí_a,42.507224,1.519428
10706,Bar L'Abadia,42.507833,1.522315
10962,Granja L'Espiga d'Or,42.506773,1.530297
10710,Restaurant L'Anoia,42.506085,1.530554
10964,Granja Matí_,42.510383,1.539011
10712,Bar Las Vegas,42.506702,1.529696
10966,Granja Mitja Lluna,42.50618,1.51504
10714,Snack-Bar Les Delicies,42.541959,1.734059
10968,Granja Pací_fic,42.512236,1.539545
10716,Cafeteria Les Delí_cies del Jimmy,42.566226,1.598709
10970,Pastisseria La Magdalena,42.510213,1.532185
10720,Snack-Bar Lizarran,42.50841,1.529953
10972,Pastisseria La Lyonesa,42.507598,1.531439
10722,Bar Llac del Cubil,42.542362,1.661232
10974,Granja Pastisseria Xocolatí_,42.534821,1.579392
10976,Cafeteria Pitiusa (Hotel Pitiusa),42.509185,1.533108
10726,Bar L'Ona Blava,42.511591,1.537343
10978,Granja Rací_ d'Enclar,42.497471,1.502692
10728,Restaurant Cafeteria L'Orri,42.507184,1.525855
10980,Snack-Bar Granja Roser,42.511692,1.534519
10732,La Boí¬te,42.509842,1.540157
10982,Granja Tuite 42,42.505739,1.528502
10736,Cafeteria Mac-Bar Punt de Trobada,42.448035,1.481756
10984,Granja Tramuntana,42.507453,1.520963
10738,Restaurant Macary,42.508584,1.52269
11378,Restaurant El Marselles,42.541226,1.732554
10986,Bar Verd i Blanc,42.504679,1.5157
10740,Bar Restaurant Margineda,42.479561,1.488836
11386,Restaurant El Rací_ de la Fina,42.547239,1.514697
10990,Granja Xamfríæ,42.507508,1.520061
10742,Bar Restaurant Meritxell,42.470049,1.493119
10992,Restaurant Barcelona,42.476344,1.49009
10998,Bar Hotel Isard,42.50806,1.525206
10748,Bar Muntanya,42.464966,1.491775
11394,Restaurant El Xalet,42.572907,1.483916
10750,Cafeteria ObíÂlix,42.56642,1.469593
11396,Restaurant Els Pessons,42.574299,1.620532
11002,Bar Hotel La Planada,42.553998,1.532082
10752,Bar Off Piste,42.574801,1.481846
11398,Restaurant Els Teus Sentits,42.507216,1.520719
11004,Restaurant Hotel Peralba,42.476229,1.488716
10754,Bar Orelles,42.506496,1.53388
11400,Restaurant Fíæbrica de Gel,42.566329,1.598071
11006,Restaurant Hotel Roc de Sant Miquel,42.580973,1.663871
10756,Bar Fora de joc,42.509739,1.531016
11402,Restaurant La Braseria la Neu,42.60023,1.532078
11008,Restaurant Segle XX,42.581257,1.638079
10758,Cafeteria Panoríæmix,42.569644,1.477747
11010,Bar Jijonenca,42.508291,1.521628
11404,Restaurant Font Blanca,42.576877,1.517158
10760,Bar Hotel Parador de Caní_lich,42.474671,1.451595
11012,Granja La Gormanderia II,42.508533,1.538716
11406,Restaurant Fontanella,42.576731,1.667105
42530,Bar Mí_n de Fantasia,42.532722,1.575687
11014,Granja pastisseria Les Caldes,42.509881,1.540693
10762,Bar Pasta Express de Neu,42.540892,1.733721
11408,Restaurant Gaspíæ,42.550891,1.526034
42987,Bar Coto Restaurant,42.467292,1.49217
11020,Granja OP Pastisseria,42.546101,1.514139
137169,Bar Restaurant Cisco de Sans,42.507063,1.520414
43315,Bar Cerveseria Caní_lich,42.463301,1.488245
11410,Restaurant Gastroní_mic,42.536523,1.49163
10764,Restaurant Polar Base,42.574801,1.481846
137170,Cantina de la Adelita,42.507417,1.520829
43328,River CafíÂ,42.454597,1.486916
137172,Bodega Albert,42.508804,1.521323
11022,Cafeteria Orxateria Valenciana,42.499978,1.508217
11412,Restaurant Andburger Zero,42.508173,1.522186
10768,Snack-Bar Quim,42.556818,1.533344
137187,Restaurant l'Isard,42.507961,1.525173
43441,Bar Taraníæ,42.508748,1.53999
137192,CafíÂ l'Isard,42.507961,1.525173
11026,Cafeteria Pa amb Xocolata,42.464135,1.490718
11414,Restaurant Hotel Bruxelles,42.576944,1.666526
43443,Bar Hotel Tudel,42.508941,1.539349
137193,Restaurant Hotel Cervol,42.503042,1.513337
137199,Restaurant Monxi el Pirata,42.496386,1.500394
11028,Pastisseria Casal,42.535888,1.582283
43458,Snack-Bar Restaurant Cuco,42.511804,1.540645
11416,Restaurant Hotel Confort,42.586836,1.615841
10772,Snack-Bar Rací_ d'en Tobira,42.50546,1.519032
137207,Restaurant Pastisseria l'Spigata,42.506498,1.522884
43480,Cafeteria Forn de Llenya Vilarrubla,42.50867,1.541234
11030,Pastisseria La Camarguesa,42.540394,1.733705
137209,Bar Restaurant Tapes i Mes,42.505581,1.516102
10774,Snack-Bar Restaurant Domenech,42.506842,1.518806
11418,Restaurant Hotel del Bisset,42.5429,1.523355
11036,Pixel CafíÂ,42.541963,1.731752
137210,CafíÂ Noir,42.507711,1.531595
43483,Cafeteria Granja Mil fulls,42.509355,1.542616
137211,Forn de pa d'Antoni,42.506433,1.515782
10776,Snack-Bar L'Oregon,42.542441,1.734434
43498,Bar Lurdes,42.512414,1.541441
137212,Bar Restaurant Ponte de Lima,42.505872,1.517235
11038,Restaurant Quarts de Quinze,42.508204,1.521741
11422,Restaurant Hotel del Tarter,42.578793,1.649998
137254,Bar Restaurant Miquel,42.453208,1.487352
43500,Bar Residencia Ní_ria,42.509146,1.541097
10778,Bar Restaurant Riau,42.512546,1.538875
137256,Cafeteria Art i Pa III,42.465243,1.490964
11424,Restaurant Hotel Diplomíætic,42.505386,1.528712
11042,Bar Totaneta,42.507382,1.531852
137257,Restaurant Jaleo,42.510989,1.538244
137258,Restaurant Atlíæntida (Hotel Metrí_polis),42.510261,1.540948
44537,Restaurant Pizzeria Angelo & Express,42.507428,1.533085
10780,Snack-Bar Ries Baixes,42.50512,1.526113
11046,Restaurant Big Ben,42.508125,1.535535
11426,Restaurant Hotel El Xalet,42.579733,1.650197
44538,Restaurant La Rabassa,42.447761,1.508746
137265,Restaurant Delicies Turques,42.508217,1.538245
11428,Restaurant Hotel Erts,42.561651,1.497772
10782,Bar Restaurant Roses,42.468039,1.493789
11048,Restaurant Blau Envalira,42.54207,1.73172
137267,Mama Dolí_a,42.512219,1.539166
10784,Bar Jocs Esportius Sant Juliíæ,42.469616,1.493132
44539,Bar Amnesia,42.510135,1.532432
137268,Cafeteria La Ratatouille,42.510915,1.538861
137269,Bar Restaurant Santa Anna,42.509164,1.541588
11050,Restaurant Cantíæbric a Taula,42.465402,1.491233
11430,Restaurant Hotel Folch,42.467562,1.493623
44540,Restaurant Hotel Mila,42.533531,1.61051
137272,Snack-Bar Ancora,42.509976,1.54224
10786,Bar Salamanca,42.510126,1.541825
11432,Restaurant Hotel Galanthus,42.582498,1.663721
11052,Restaurant Casa del Bistec,42.50856,1.535983
44541,Bar L'Alternativa,42.50815,1.521841
10788,Bar Sant Romíæ,42.567038,1.489768
137274,Restaurant Koy Hermitage,42.575556,1.671111
44542,Restaurant Andburger Zero,42.536265,1.583022
137287,Restaurant La Tofana,42.575556,1.671111
10790,Bar Segle XXI,42.532836,1.576763
44544,Restaurant la Coma & Self-service,42.631596,1.48696
11436,Restaurant Hotel CíÂntric,42.508339,1.531348
137292,Restaurant Hotel Xalet Montana,42.576948,1.666083
137297,Restaurant Can Fontbernat,42.534384,1.58285
11056,Restaurant Cesar II,42.509161,1.54182
44545,Restaurant El Rací_ del Prat de les Mines,42.601631,1.534695
10792,Bar Serra do Geres,42.50894,1.543134
137298,Bar Restaurant Funicamp,42.535615,1.587349
11438,Restaurant Hotel Cosmos,42.510118,1.53821
44547,Cafeteria D Delicios,42.507661,1.531674
10794,Bar Restaurant Sevilla,42.509322,1.542297
11058,Restaurant Chez Paulo,42.542951,1.735008
137301,Underground Bar,42.541503,1.731763
11440,Restaurant Hotel Kandahar,42.542046,1.731709
137309,Restaurant Bistrot,42.531902,1.573605
44554,Restaurant Andburger Zero,42.532118,1.695904
137310,Bar Xurrasqueria Moní_anense,42.533863,1.580241
11060,Restaurant Cuina Manxí_ria Imperial,42.508307,1.540744
137311,Bar Cal l'Entrepíæ,42.535931,1.492492
11442,Restaurant Hotel Les Truites,42.542971,1.734987
44555,Restaurant Hotel Mirtil,42.541813,1.732986
10802,Bar Restaurant Tarragona,42.505064,1.52593
137400,Restaurant Pastisseria l'Espiga d'Or,42.506773,1.530297
44556,Restaurant l'Husky,42.540862,1.731893
11446,Restaurant Hotel Montecarlo,42.532212,1.573877
10804,Bar Restaurant Terra Alta,42.506449,1.529406
137516,Snack-Bar Harlem,42.506732,1.520757
11064,Restaurant Delicius,42.507756,1.534138
44557,Underground Sports Bar and Grill,42.541683,1.732036
11448,Restaurant Hotel Naudi,42.577086,1.665963
137526,Restaurant Cal Sinquede,42.508327,1.521739
10806,Bar Tertí_lia,42.507696,1.53428
44558,Restaurant La Gratinada,42.540883,1.733738
11066,Restaurant Cubil,42.531777,1.698922
138018,Restaurant La Vita íÂ Vegan,42.510399,1.541987
10808,Bar Tinc 7,42.566455,1.598961
44560,Bar Winsord (Hotel Mercure),42.507775,1.527516
11068,Restaurant El Gran Cafí©,42.505699,1.520045
11452,Restaurant Hotel Oros,42.536339,1.582332
138621,Hardbreak,42.507245,1.526054
44562,Restaurant La Borda,42.540705,1.733794
11454,Restaurant Emo - Hotel Palomí©,42.565187,1.490855
11070,Restaurant El Mussol,42.510464,1.541187
44563,Restaurant Granja Camps Elisis,42.540705,1.733794
11456,Restaurant Hotel Paris,42.535896,1.581838
44564,Bar El Raval,42.507488,1.528972
11072,Restaurant El Provení_al,42.539169,1.733372
10812,Bar Tres Estanys,42.531777,1.698922
11458,Restaurant Hotel Parma,42.54339,1.732728
11074,Restaurant El Rací_ del Garrí_,42.533489,1.579902
44565,Bar Entre amics,42.504075,1.523066
10816,Bar Restaurant Turí_stic,42.511922,1.535114
11460,Restaurant Hotel Pere d'Urg,42.534864,1.580288
11076,Bar El Rací_ d'en Guizzi,42.505654,1.527749
44566,Cafeteria L'altra Grandalla,42.507349,1.530136
10818,Bar Valipas,42.534761,1.580025
11464,Restaurant Ermitage,42.465481,1.491528
11078,Restaurant El Rebost del Padrí_,42.506896,1.521099
44567,Bar l'Amic,42.504336,1.514594
10820,Snack-Bar Valireta,42.462754,1.49034
44574,Bar Pa I Mí©s,42.507553,1.521359
11080,Restaurant El Refugi (Hotel Tropical),42.512886,1.551229
11468,Restaurant Hotel Soldeu Maistre,42.577215,1.666269
10822,Bar Restaurant Verí_n,42.466373,1.492545
11082,Restaurant El Refugi Alpí_,42.508964,1.529095
44575,Cafeteria Pastisseria Reina,42.507553,1.521359
11470,Restaurant El Rací_ dels Avets - Hotel St. Gothard,42.566297,1.490368
10824,Snack-Bar Wi-Fi CafíÂ,42.507429,1.527518
11084,Restaurant El Prat del Roure,42.510882,1.535988
44580,Cafeteria Santa Gloria,42.5079,1.533591
11472,Restaurant Hotel Sucaríæ,42.574139,1.518471
10828,Bar Restaurant Xenius,42.469499,1.492939
44583,Cafeteria l'Spigata,42.50675,1.523319
11086,Restaurant Camp del Serrat,42.517434,1.568223
11474,Restaurant Hotel Univers,42.537026,1.582278
10830,Bar Stop Vermell,42.506067,1.528932
44584,Frankfurt del Toni,42.50658,1.517322
11088,Restaurant El Tall a Taula,42.507123,1.531254
11476,Restaurant Hotel Vall Ski,42.579773,1.659729
44585,Cafeteria La Botiga del TíÂ,42.508151,1.522528
10832,Creperia l'Iguana,42.566654,1.599458
11090,Restaurant El Teatre del Vi,42.531777,1.698922
11480,Restaurant Hotel Xalet Bringuí©,42.61982,1.540039
44587,Bar PortuguíÂs,42.504408,1.514688
11092,Restaurant Els Flocs,42.539465,1.733442
10834,Restaurant La Taverna de la Iaia,42.576966,1.667457
44589,Bar Restaurant Espanyol,42.505026,1.514361
11484,Restaurant Kronos (Fenix Hotel),42.509553,1.539615
10836,Granja Cafeteria Trilogia,42.532559,1.576954
11094,Restaurant Hotel Roc de Caldes,42.510632,1.547141
44593,Bar 3R Temps,42.505457,1.516846
11486,Restaurant Hotel Rutllan,42.547378,1.513238
11096,Restaurant Els Planells,42.631681,1.500527
10838,Snack-Bar Vermell i Negre,42.5056,1.523682
44596,Cafeteria l'Elixir,42.50771,1.52371
11488,Restaurant La BohíÂme,42.507864,1.523602
44598,Restaurant Pollastre Ríæpid,42.504694,1.514824
11098,Restaurant íŠs Andorra (Andorra Park Hotel),42.50924,1.523066
10840,Restaurant Viena,42.495343,1.505299
11490,Restaurant La Borda Xica,42.544883,1.513736
11100,Restaurant La Cabana - Espiolets,42.578208,1.64619
44602,Hostel & Pub Barri Antic,42.506883,1.52099
10844,Frankfurt A On Anem,42.535595,1.582028
10408,Restaurant Abbasid Dí_ner Kebab,42.508632,1.535267
44603,Cafeteria 42 Tu I Te,42.505773,1.528464
11492,Cafeteria La Brasserie,42.508378,1.527057
11102,Restaurant Eureka,42.508726,1.540189
10846,CaffíÂ Di Fiore,42.508633,1.535859
10412,Bar Aquí_ T'espero,42.511726,1.540594
11494,Restaurant La Braza,42.540892,1.733753
10414,Bar Arbre de Gel,42.534599,1.587085
11104,Restaurant Eximi,42.508054,1.522881
10416,Bar Armada,42.5049,1.514727
44607,Restaurant La Taverna d'Ali,42.506881,1.529877
11498,Restaurant La Caleta,42.577226,1.665361
10848,Bar Pulka,42.531777,1.698922
11106,Restaurant Fontanella (Hotel Exe Prisma),42.510522,1.539052
44608,Cafeteria Cigne & Delicious,42.463992,1.506151
11500,Restaurant La Cantina dels Racons,42.562469,1.590292
10850,Restaurant Borda de Conangle,42.441131,1.500406
44611,Bar Salta Lalinda,42.504536,1.514701
10420,Bar Restaurant El fill d'AstíÂrix,42.542939,1.731902
11502,Pizzeria La Capricciosa,42.542459,1.517305
44612,Bar Ranxo Apart,42.503497,1.513575
11110,Restaurant El Grill (Hotel Novotel),42.507603,1.527379
10852,Restaurant Borda de les Pubilles,42.46258,1.50197
10424,Bar del Centre,42.465253,1.490756
11504,Restaurant La Cava Ronaldo,42.508355,1.52195
44616,Bar Els Barrers,42.496677,1.498109
11112,Restaurant Helios (Hotel Delfos),42.508141,1.538451
10854,Restaurant Borda del Rector,42.582664,1.662712
11506,Restaurant La Coma Snowfood,42.629059,1.497882
44618,Restaurant El Burg,42.50457,1.51511
10426,Bar del Parc,42.534603,1.578662
11114,Restaurant Hong Kong,42.508889,1.536718
10430,Bar Jamaica,42.495736,1.499248
10856,Restaurant Borda del Tremat,42.534481,1.583163
11508,Restaurant La Cí_pula (Hotel Plaza),42.506836,1.532335
44626,Bar Segura de la Serra,42.50557,1.514631
10858,Restaurant Borda d'Erts,42.561817,1.496243
44628,Bar Tam Tam,42.504201,1.515057
11510,Restaurant La Dama Blanca (Hotel Andorra Center),42.507681,1.520456
10432,Restaurant L'Estela,42.505165,1.51842
44637,Cafeteria Andorra 2000,42.506073,1.529479
10860,Restaurant Borda Estevet,42.503297,1.519555
11118,Restaurant Hotel Antic,42.58032,1.518885
11512,Restaurant La Dama del Llac,42.52187,1.570423
10434,Bar Restaurant Pic Nic,42.49225,1.496713
44648,Cafeteria La Yoghourteria by Danone,42.508948,1.534742
11120,Restaurant Hotel Arans,42.582182,1.518978
10436,Restaurant TríÂvol Verd,42.499751,1.508866
11514,Restaurant La Font d'Arans,42.58232,1.519289
10862,Restaurant Borda l'Arena,42.47751,1.472608
44652,Restaurant Sol i Neu Club Hermitage,42.575867,1.669719
11122,Restaurant Hotel Babot,42.555038,1.540418
11516,Restaurant La Graella,42.541975,1.733769
10438,Restaurant Pontones,42.496096,1.502635
10864,Restaurant Borda l'Era del Rossell,42.553602,1.590453
44653,Restaurant Cal Bonavida,42.566501,1.600053
11124,Restaurant Hotel Bringuí©,42.618723,1.539245
11518,Restaurant La Llum d'Oli,42.569071,1.488556
10442,Bar Versalles,42.508119,1.521652
44655,Restaurant El Rebost El Coll de la Botella,42.536523,1.49163
11520,Restaurant La Marmita,42.531777,1.698922
10444,Bar Vilarí_ II,42.593373,1.525549
11126,Restaurant Hotel Catalunya,42.541829,1.733308
44657,Restaurant La Taula dels Amics,42.565872,1.598074
11522,Restaurant Pizzeria La Mosquera,42.536501,1.583169
10446,Bar Benlloch 36,42.506607,1.518479
11128,Restaurant Celler d'en Toni,42.507117,1.531842
10448,Bar Bocateria Os d'or,42.506445,1.530624
11130,Restaurant Hotel Central,42.542916,1.733683
11524,Restaurant l'Ensegur,42.599679,1.531616
44658,Restaurant La Coma,42.579602,1.659126
10872,Restaurant La Llar de l'Artesíæ - Borda Popaire,42.559522,1.685831
44659,Restaurant Hotel Llop Gris,42.578119,1.648361
11526,Restaurant La Nova Forquilla,42.507793,1.53594
10450,Snack-Bar Eurocenter,42.46629,1.491745
10874,Restaurant Borda Raubert,42.559281,1.503268
11134,Restaurant Hotel Cims Pas,42.542347,1.734306
11532,Restaurant La Palmera de la Neu,42.576897,1.667068
44660,Restaurant Alberg Borda Jovell,42.536143,1.516434
10876,Restaurant Borda Vella,42.534888,1.579188
11136,Restaurant Hotel Coma,42.555887,1.535333
11534,Restaurant La Piazza Txindoki,42.507587,1.53144
44662,Restaurant Manacor Grill,42.579005,1.641378
10878,Restaurant La Borda de l'Avi,42.551515,1.510363
11138,Restaurant Hotel Coma-Bella,42.446503,1.494613
11536,Restaurant La Piazza II,42.507562,1.531456
44665,Restaurant Capriccioso,42.534772,1.53382
10880,Cafeteria 1978 CafíÂ,42.508691,1.54068
11140,Restaurant Confort,42.542145,1.732342
44667,Restaurant La Cort de Popaire,42.577401,1.666639
11538,Restaurant La Pinosa,42.507777,1.534277
10882,Cafeteria Andorra Center,42.507671,1.520488
11142,Restaurant Co-Prí_nceps,42.468223,1.49339
44676,Restaurant Merlot,42.577587,1.665186
11540,Restaurant Pizzeria La Plazzeta,42.508477,1.536839
10886,Cafeteria Rialb,42.61851,1.538966
44701,Restaurant Hotel Espel,42.51061,1.54204
11144,Restaurant Hotel Coray,42.535188,1.584949
11542,Restaurant La Relliscada,42.565852,1.597959
10888,Cafeteria Art i Pa,42.507081,1.519077
44703,Restaurant Andburger Zero,42.509106,1.537873
11146,Restaurant Hotel de Les Neus,42.543192,1.734177
10890,Cafeteria Art i Pa SL II,42.507079,1.530951
44711,Restaurant El Serch,42.512199,1.535392
11148,Restaurant Hotel Font d'Argent,42.541736,1.731999
44712,Restaurant Hotel Panorama,42.50778,1.540967
11546,Restaurant La Sangria,42.551958,1.590224
10892,CafíÂ de la Repí_blica,42.544877,1.523793
11150,Restaurant Les Closes,42.508663,1.536895
44735,Restaurant Nogreda,42.500946,1.519072
10898,Cafí© Principal,42.462966,1.490962
11152,Restaurant Hotel Panda,42.543394,1.733372
44746,Restaurant Bar Nou,42.509705,1.531118
11548,Restaurant La Tagliatella,42.508647,1.537131
10900,Cafeteria Self-Service CCA,42.508282,1.530308
44748,Restaurant Ií_ (Centre Wellness Iní_u),42.51127,1.537525
11155,Restaurant Hotel Síælvia d'Or,42.50858,1.527969
11550,Restaurant La Tapad'era,42.508117,1.538435
44749,Restaurant Oxalis,41.953669,2.639749
11156,Restaurant Hotel Sant Eloi,42.458155,1.487768
10908,Bar l'Automí_bil (Hotel Tropical),42.512483,1.550789
11552,Restaurant La Taverna del Pa amb Tomíæquet,42.508679,1.539105
44758,Restaurant Hotel Sant Jordi,42.506434,1.518407
10910,Cafeteria Restaurant Marticella,42.508426,1.533666
11160,Restaurant Hotel Sporting,42.541714,1.733775
44759,Restaurant Font del Puial,42.506747,1.517038
11554,Restaurant La Taverna d'Excalibur,42.508742,1.54021
10914,Cafeteria Coll Blanc,42.533856,1.720304
11164,Restaurant Cheese's Art,42.508647,1.537979
44760,Restaurant Pizzeria Angelo & Friends,42.507336,1.533083
11556,Restaurant La Torrada,42.553063,1.487925
10916,Cafeteria Croissant Express,42.541734,1.732868
44761,Restaurant La Brasa d'en Josep,42.494074,1.499897
11166,Restaurant La Cirera,42.534597,1.587114
11558,Restaurant La Vaqueria,42.531777,1.698922
10918,Granja Diva,42.50995,1.531635
44769,Restaurant La Adelita Taqueria Cantina Mexicana,42.507764,1.52194
11168,Restaurant La Copa,42.541819,1.731825
11560,Restaurant L'Abarset,42.579031,1.649518
44771,Restaurant Mí©s Bo,42.509972,1.531451
10920,Cafeteria Dolí_ i Salat,42.510514,1.541085
11170,Restaurant La Cuina d'en Marvic,42.508691,1.54057
11562,Restaurant L'Aigí_eta,42.505191,1.525394
44772,Restaurant Aparthotel Font Verd,42.507347,1.530704
10922,Restaurant l'Arrosseria 2,42.555637,1.533433
11172,Restaurant La Di Roma,42.540924,1.733651
11564,Restaurant L'Arrosseria,42.507168,1.521413
44773,Restaurant L'Aquari,42.500273,1.517553
10924,Cafeteria El Rací_ del Xurro,42.507018,1.528655
11174,Restaurant La Malagueta,42.542084,1.73165
44942,Restaurant Vietnam Gourmet,42.506615,1.530659
11568,Restaurant L'EntrecíÇte,42.509248,1.539443
10926,Pastisseria El Tortell III,42.50735,1.531788
11176,Restaurant La Raclette,42.541789,1.73223
44943,Restaurant Coma,42.506925,1.520784
11570,Restaurant L'Era d'en Jaume,42.596366,1.526912
11178,Restaurant La Taverna Italiana,42.508691,1.54006
45445,Granja Restaurant L'Estacií_,42.505593,1.527784
11572,Restaurant L'Ermita,42.553883,1.590266
11182,Restaurant La Toscana (Hotel Tropical),42.512886,1.551229
45642,Bon Dia Cafí© Temíætic,42.508389,1.521566
45772,Ciber CafíÂ Selenites,42.508714,1.521395
11184,Restaurant L'Enoteca,42.510031,1.539752
11576,Restaurant Les Fargues,42.563167,1.526764
45783,Restaurant Nostrum S.L.,42.506762,1.530468
11186,Restaurant Les Barques,42.508527,1.535892
11580,Bar l'Estadi,42.502415,1.514611
45818,Restaurant Andorra Doner Kebab,42.50678,1.528792
11188,Restaurant McDonald's,42.507979,1.524892
11582,Borda Eulari,42.534937,1.524735
45831,Restaurant La terrassa del Solíæ,42.566261,1.598771
46075,Frankfurt Callaueta,42.506326,1.529112
11192,Restaurant Nou Vertical,42.556628,1.533637
11584,Restaurant L'Hort de Casa,42.561838,1.496402
46078,Restaurant Viena Escaldes,42.508743,1.53602
11194,Restaurant Pizzeria Magna,42.508125,1.529127
11586,Restaurant L'Hortell,42.631851,1.499709
46420,Vodka Bar,42.531712,1.698895
11196,Restaurant Pizzeria Primavera,42.507026,1.529996
11588,Restaurant Llac i Cel,42.521617,1.571345
46683,Restaurant El Kilombo,42.506245,1.518115
11198,Restaurant Pizzeria Uruguaia,42.462984,1.491147
11590,Restaurant L'Ovella,42.533848,1.587986
46938,Cafeteria La Caseta de xocolata,42.508748,1.53999
47038,Borda Casa Vella Palí©s,42.543661,1.523312
11200,Restaurant Pizzeria VeníÂcia,42.462614,1.491177
11592,Restaurant Ca la Lydia,42.544467,1.47836
11594,Restaurant Mallador del Guillem,42.535706,1.583233
11202,Restaurant Plat'in,42.507485,1.531799
68114,Cafeteria Cafí© Cal Pepo,42.512816,1.534898
11596,Restaurant Mama Marí_a,42.50807,1.524965
11204,Restaurant Platí_,42.507097,1.526434
68128,Cafeteria Hotel Naudi,42.576831,1.666104
78492,Piscolabis,42.508594,1.530707
11598,Restaurant Cal Marquet - La Viniteca,42.508632,1.535267
78502,Trattoria Il Figaro,42.507988,1.522233
11206,Restaurant Quo Vadis,42.573337,1.483382
11600,Restaurant Marquet Gourmeterie,42.509082,1.539717
93353,Restaurant Udon Andorra,42.508123,1.534116
11208,Restaurant Rací_ d'en Josep,42.505306,1.519831
11602,Restaurant Memfis (Hotel Delfos),42.508082,1.538413
135147,Restaurant El Raco Burgues,42.555655,1.533073
11210,Restaurant Ríæpid Pasta,42.539198,1.733319
136258,Aspen,42.576869,1.666837
11606,Restaurant Minim's,42.5072,1.520759
11214,Restaurant Reial Pirineus,42.542141,1.730958
136260,Bar 4 i Tres,42.505492,1.528386
11216,Restaurant Sport Hotel Village,42.576132,1.669034
136262,Buda Espai Andorra,42.50052,1.512471
11610,Restaurant El Molí_ de la Plaí_a,42.572597,1.483995
11218,Restaurant 120,42.50845,1.53343
136371,CafíÂ Goa,42.54258,1.517299
11612,Restaurant Molí_ del Peano,42.567835,1.602384
136387,Cerveseria L'Abadia,42.508078,1.521907
11220,Restaurant 1940 - Hotel Pyrí©ní©es,42.507414,1.519675
11614,Restaurant Molí_ dels Fanals,42.533315,1.516312
136393,Blue Night,42.505466,1.528459
11224,Restaurant Hotel Abba Xalet Suites,42.532591,1.518441
136395,Cerveseria Ibeer,42.54193,1.731749
11226,Restaurant Piolets & Spa,42.577639,1.663914
136410,Cisco's,42.572725,1.48397
11618,Restaurant Origen,42.575617,1.670887
11228,Restaurant Al Solet d'Itíælia,42.508228,1.535514
136423,Discoteca Bilboard,42.541532,1.732034
11620,Restaurant Oriol,42.509193,1.53977
11232,Restaurant Pizzeria Angelo,42.50773,1.534261
136425,Discoteca 4ever,42.505565,1.519458
11622,Restaurant Pampa,42.578165,1.479391
136795,El Teu Espai Cocktail,42.508429,1.521231
11234,Restaurant Arlequí_ Pizza,42.565819,1.597529
11624,Restaurant Papanico,42.50758,1.521521
136799,El Rana Bar,42.506484,1.53125
11236,Restaurant Arrels,42.575878,1.670183
11626,Restaurant Parador Santa Coloma,42.493547,1.497821
136800,El meu raconet,42.511785,1.540449
11238,Restaurant Arrosseria Pi de Migdia,42.578441,1.645994
136802,L'Albert Rabassut,42.577055,1.667309
11240,Restaurant Hotel i Termes Carlemany,42.509211,1.544384
11630,Restaurant Piolets Park & Spa,42.577592,1.664042
136804,Festa Andorra,42.50456,1.522194
11242,Restaurant Bambí_ (Hotel Palarine),42.561501,1.497488
11634,Restaurant Pizzeria Angelo,42.545089,1.515073
11244,Restaurant Bellpí_,42.503825,1.514091
136808,La Birreria,42.507352,1.521513
11636,Restaurant Pizzeria Angelo,42.46939,1.492588
11246,Restaurant Benito,42.533133,1.579092
11640,Restaurant Pizzeria Casa Teva,42.500334,1.508026
136824,Luxí_ria Cafí© Teatre,42.506812,1.52096
11250,Restaurant La Cuina d'en Joan,42.546755,1.514053
136826,Mí_n Bohemi,42.545876,1.516945
11642,Restaurant Pizzeria Coll d'Ordino,42.554074,1.533532
11252,Restaurant Bonet,42.545523,1.476452
136829,Milwaukee Pub,42.542117,1.731629
11644,Restaurant Pizzeria La Cantina,42.508206,1.521596
136830,Pikolo,42.505092,1.527491
11254,Restaurant Borda de l'Hortí_,42.579012,1.639429
11646,Restaurant Pizzeria La Mossegada,42.508964,1.529149
136836,Pub Xaloc,42.55668,1.533647
11256,Restaurant Buda Espai Andorra,42.500556,1.512659
136837,Pub Sensenom Rock,42.509355,1.530477
11652,Restaurant Rí_stic Chic,42.507906,1.534272
136840,Pub Sagardotegi Herri,42.577837,1.479807
11258,Restaurant Bufet La Caubella,42.536523,1.49163
136841,Pub Polaris,42.507852,1.534425
11654,Restaurant Sagardotegui,42.573826,1.482883
11260,Restaurant Ski Plaza,42.565811,1.59739
136843,Pub La Gruta,42.509416,1.54061
11658,Restaurant Sancho - Panza,42.468012,1.493546
11262,Restaurant Ca la Conxita,42.508792,1.522307
136844,Pub Indiana,42.509482,1.545392
11660,Restaurant Self-Service Arinsal,42.534615,1.471653
11264,Restaurant Ca la Padrina Carmen,42.5675,1.601269
136845,Pub Iceberg,42.576735,1.667669
11664,Restaurant Self-Service Punt de Trobada,42.448035,1.481756
136852,Popaire&Pussycat Disco,42.577377,1.666612
11266,Restaurant Indalo,42.509952,1.531574
11666,Restaurant Serradells,42.499828,1.518549
11268,Restaurant CafíÂ la ResidíÂncia,42.543161,1.731833
136853,Pub Corinthia,42.508232,1.535431
11670,Restaurant Siracusa (Hotel Siracusa),42.509079,1.543323
136854,Quo Vadis Pub,42.573337,1.483382
11270,Restaurant Pizzeria Cal Lulí_,42.565819,1.597009
136855,Shusski Bar,42.533795,1.580304
11672,Restaurant Sol i Neu Fast Food,42.576205,1.667928
11272,Restaurant Cal Padrí_,42.541852,1.732195
136856,Tabola Club,42.54524,1.516027
11674,Restaurant Steak House - Gall de Bosc,42.577213,1.647906
11274,Restaurant Cal Silvino,42.545994,1.517057
136857,Surf Pizza,42.572417,1.483031
11678,Restaurant Tatí_,42.505191,1.525372
11276,Restaurant K l'Irina,42.506963,1.528661
136860,The Camden,42.509327,1.53667
11680,Restaurant Taverna Angel Belmonte,42.507421,1.530812
11280,Restaurant Cal Tonet,42.573097,1.518705
136861,Temple Bar,42.507753,1.535302
136879,Irish Pub (Hotel Míægic),42.546913,1.515546
11682,Restaurant Taverna Comapedrosa,42.571924,1.483629
11282,Restaurant Caliu d'en Josep,42.536398,1.582723
136880,Sport Commencal,42.561628,1.496823
136882,Derby Irish Pub,42.571894,1.484565
11284,Restaurant Cíæmping Borda Ansalonga,42.568289,1.521907
11684,Restaurant Taverna d'en Mallol,42.50701,1.531788
136883,La Tasca (Hotel Arinsal),42.573648,1.482994
136884,Pub Cheers,42.542486,1.517196
136888,Fill de Tapa,42.469495,1.493154
11286,Restaurant Can Benet,42.507261,1.520496
11686,Restaurant Tic Tapa,42.508367,1.535897
136895,Croma,42.541555,1.731497
11288,Restaurant Can Fontcuberta,42.536387,1.58369
136897,Video Pub Kyu,42.540671,1.731324
136898,Nemo (Hotel Llop Gris),42.578106,1.648428
136902,La Nau Blava,42.506026,1.532211
11690,Restaurant Topic,42.556511,1.534575
11290,Restaurant Can Manel,42.506403,1.515821
136927,Pub Camping Pla,42.566167,1.610184
136928,Havana Club,42.54237,1.731387
11692,Restaurant Trattoria Riba Escorxada,42.578441,1.645994
136930,Disco-Pub Mil.linium,42.509487,1.530513
11292,Restaurant Can Pep,42.582928,1.662691
136931,Restaurant Hotel Euro Esquí_ E.T.,42.579095,1.657939
136936,Restaurant Hotel Refugi dels Isards,42.543279,1.735089
11694,Restaurant Trovi Punt de Trobada,42.448035,1.481756
136938,Bar Restaurant La Perla Negra,42.541767,1.731738
11294,Restaurant Can Pere,42.535422,1.524911
11696,Restaurant Valira (Cíæmping),42.501703,1.515169
136939,Dylan's,42.579725,1.649518
11298,Restaurant El Cap Bo,42.508734,1.532335
136951,Pub-discoteca Tumbao,42.506628,1.534118
11700,Restaurant Versailles,42.50792,1.522079
136954,Madison CafíÂ,42.540899,1.731786
136959,Pub Son Son,42.505971,1.517744
11300,Restaurant Carmen,42.475836,1.48732
11702,Restaurant Versií_ Original V.O,42.544765,1.514955
136962,Restaurant Hotel Solana Arinsal,42.571347,1.486049
11302,Restaurant Casa Canut - La Barra del Canut,42.508568,1.535704
11704,Restaurant Vilarrasa,42.508272,1.521311
136966,Brocí©liAnd,42.508031,1.522261
137020,Taverna a Batea,42.533708,1.580936
137021,Restaurant Alaska (Aparthotel Alaska),42.5417,1.731425
11304,Restaurant Casa Canut - La Grandalla dels Set PíÂtals,42.50856,1.535704
11706,Restaurant San Telmo,42.465734,1.495101
137104,Restaurant Judith,42.543314,1.733028
11306,Bar Restaurant Casa Leon Armengol,42.556722,1.533226
137106,Restaurant Lizarran,42.541365,1.732675
137108,Restaurant El Xalet Suisse,42.541063,1.731557
137112,Restaurant El Fogo Negre,42.541989,1.731826
11710,Restaurant Solaris,42.541435,1.730176
137113,Restaurant Hotel Llac Negre,42.544702,1.73121
137116,Bar Rací_ de l'Entrepíæ,42.542032,1.734076
137117,Snack-Bar El Xalet,42.542984,1.734258
11712,Restaurant Sushi and Gong,42.508043,1.522707
137119,Restaurant Oh! Burger Lounge,42.541593,1.732696
137121,Bernardo Monteiro,42.541767,1.731741
11310,Restaurant Casa Teresa,42.507955,1.528832
137122,Paddy's Irish Bar,42.541553,1.732319
11714,Restaurant Taverna Americana,42.543461,1.732138
137130,La Taverna del Pas,42.543323,1.731925
11312,Restaurant Cava Moreneta,42.535633,1.581645
137131,Snack-Bar Manzano (Apartaments Turí_stics Manzano),42.541808,1.730663
137132,Restaurant L'Entrecot de Franí_a,42.54379,1.732167
11716,Restaurant Taverna Andaluza,42.506207,1.530814
137133,Restaurant Hotel La Cabana,42.552952,1.533135
11314,Restaurant Central Germans Ferreira,42.505596,1.525997
11720,Restaurant Taverna Cal Forest,42.508758,1.537238
137135,Casa Auvinyíæ,42.453412,1.492416
137136,Restaurant Aparthotel Rialb,42.617493,1.537913
11316,Restaurant Centre Comercial Sí_per U,42.508289,1.530415
11722,Restaurant The Burger Lounge,42.508632,1.535267
11318,Restaurant Cerro Otto,42.56984,1.487614
137139,Restaurant Hotel Sant Miquel,42.568208,1.52154
11724,Restaurant Bar Xup Xup,42.508189,1.539191
137138,Celler Mas Berenguer,42.459707,1.485573
11322,Restaurant Cisco's,42.572778,1.483981
137143,Bar Restaurant Babi,42.55656,1.533835
11324,Restaurant Comtes d'Urgell (Hotel Comtes d'Urgell),42.510704,1.541176
137144,Restaurant Istanbul Kebab i Pizzeria,42.545416,1.514973
11732,Restaurant El Grill - Expresso,42.536523,1.49163
137145,La Taverna de Pal,42.535931,1.492492
137149,Restaurant Rí_stic,42.535931,1.492492
137150,Refugi d'Arinsal,42.573616,1.469886
11326,Restaurant Caldea,42.511597,1.537338
11737,Snack-Bar Bufet Arinsal,42.573107,1.470905
137151,Borda Sabatí© 1944,42.445663,1.475496
11742,Granja La Clariana,42.504281,1.51401
11328,Restaurant Dí©jíæ Vu,42.571914,1.484574
137153,Casa Beal,42.472395,1.497311
11744,Restaurant Lorenzo's,42.505499,1.518999
137157,Restaurant Luis XV (Hotel Diana Park),42.573994,1.482189
11332,Restaurant del Prat Gran,42.548338,1.512991
137158,Restaurant Hotel Xalet Verdí_,42.574732,1.48193
11746,Cafeteria Passatemps Dolí_,42.506864,1.525624
11334,Restaurant L'Oliví©,42.50771,1.531911
11750,Restaurant El Pa Torrat,42.506808,1.528883
11336,Restaurant Delizioso,42.532971,1.524096
137162,Restaurant Apartaments Turí_stics Sant Romíæ,42.567222,1.489946
137163,Bar Ciutat Invicta,42.541588,1.5162
11754,Restaurant La Quadra,42.476378,1.488862
11338,Restaurant Deu Sol,42.586124,1.665158
137164,El Xiringuito de Pal,42.535931,1.492492
137166,Snack-Bar El Rací_ dels Amics,42.542161,1.517366
137168,CríÈpes and Go,42.535931,1.492492
11340,Restaurant Don Denis,42.508386,1.536407
11760,Bar Rací_ d'en Pere,42.509043,1.542935
11342,Restaurant Don Pernil,42.494932,1.497703
11762,Bar Sinatra,42.508434,1.536326
11766,Pizzeria Cal Cubíæ,42.506433,1.516054
11346,Restaurant Dos Caí_adors,42.507524,1.522368
11768,Cafeteria Veritas,42.50811,1.528988
11348,Restaurant Dylan's,42.579928,1.651629
11770,Restaurant El Pi (Hotel Roc Blanc),42.509264,1.539438
11350,Restaurant El Bon Rací_,42.495106,1.504494
14114,Restaurant The Family Arms,42.507496,1.522937
11352,Restaurant El Bosc,42.56979,1.487682
18064,Restaurant Eatalian Republic,42.50704,1.526075
11354,Restaurant El Carlit de Neu,42.54071,1.733775
18421,Restaurant Pas del Cabirol,42.577933,1.62904
11356,Restaurant El Carrerí_,42.53003,1.572536
18431,Restaurant El Saler,42.580575,1.640753
11358,Restaurant El Cresper,42.534682,1.580105
19676,Restaurant Piolet,42.577572,1.664482
11360,Restaurant El Crostí_,42.508159,1.522191
20707,Restaurant El Rebost IbíÂric,42.508583,1.535268
11362,Restaurant El Cyrano de Bergerac,42.533943,1.580331
37473,Snack-Bar Pas 83,42.540804,1.731848
11364,Restaurant El Faisíæ,42.507908,1.522285
37483,Bar Bo & Gola,42.541365,1.732678
11366,Restaurant Roc de les Bruixes - El Forn,42.56593,1.601536
37486,Bar Font Negre,42.542198,1.732591
37526,Little Rock CafíÂ,42.53883,1.73325
37549,Bar Chez Andrí©,42.542719,1.73453
11368,Restaurant El Gargantua,42.539477,1.73349
37691,Bar Restaurant La Borrufa,42.543335,1.732908
11370,Restaurant El Greco,42.507943,1.535511
37694,Bar El Comerí_,42.542193,1.73249
11372,Bufet El Grill (Grans Magatzem Pyrí©ní©es),42.508141,1.523709
37798,Bar Restaurant O Menjar Beure i Diversií_,42.556516,1.535308
11374,Restaurant El Japo,42.508907,1.528738
39459,Snack-Bar El Bull,42.545625,1.514739
11376,Restaurant El Jardí_ (Hotel Mercure),42.507726,1.527459
39462,Sport Bar,42.534772,1.53382
39463,Bar Don Piacere (Sabors Familiars),42.547039,1.513696
39465,Cafeteria T de Te,42.545845,1.514239
39466,Pub IrlandíÂs Míægic La Massana,42.54704,1.515309
39470,Cafeteria La Rialla,42.545027,1.514859
39484,Cusi CafíÂ,42.541533,1.518012
39510,Bar Ski CafíÂ,42.584632,1.470776
39698,Pub Irlandí©s Magic Canillo,42.560094,1.601805
39701,Restaurant Pizzeria l'Avet,42.544102,1.73466
39704,Bar Hotel les Terres,42.578859,1.628948
39737,Bar The Arp,42.566654,1.599458
39743,Bar Les Tres BBB,42.59688,1.676155
41241,Restaurant Refugi Les Portelles,42.627764,1.494364
42386,Bar Orlando,42.534374,1.585628
42429,Bar Tirant lo Blanc,42.535511,1.585396
42443,Cafeteria Fleca i Pastisseria l'Espiga,42.534199,1.579873
42509,Bar la Parada,42.531494,1.573338
42526,Bar Ankara Kebab Pizzes,42.532722,1.575687
11756,Restaurant L'Escenari de Pizzes,42.509834,1.531166
11344,Restaurant Pizzeria Donky,42.571413,1.470365
11650,Restaurant La Borda,42.573436,1.477747
10946,Granja Fleca Font,42.555611,1.532255
10514,Cafeteria Flor de Neu,42.532722,1.575932
10934,Cafeteria Fleca Font,42.507437,1.521542
10932,Cafeteria Fleca Font,42.545303,1.515244
10928,Cafeteria Fleca Font,42.53552,1.581559
10930,Cafeteria Fleca Font,42.508671,1.538
10948,Cafeteria Forn del Barri,42.506634,1.531332
10498,Frankfurt Cerveseria Lí_ria,42.467337,1.493636
39473,Cafeteria Fred Oh!,42.545373,1.514135
137167,Fugazzeta,42.57154,1.48572
39668,Glassbar 1850,42.545185,1.733628
10954,Granja La Grandalla,42.507864,1.521129
10866,Restaurant Borda Pairal 1630,42.505701,1.521424
10868,Restaurant Borda Patxeta,42.565977,1.566067
11628,Restaurant del Llac de Pessons,42.531966,1.700209
11062,Restaurant Dehesa Santa Marí_a,42.508632,1.535267
10564,Restaurant Pans & Company,42.508632,1.535267
11708,Restaurant Pizza Roma,42.508632,1.535267
11108,Restaurant Fresc Co,42.509174,1.527422
11608,Restaurant Mola Park,42.511194,1.53969
10672,Bar Igloo,42.570465,1.479721