id,name,lat,long
8107,Covima,42.497316,1.509101
8109,Creacií_ d'Espais M.Molins,42.508835,1.527886
8115,Cubic,42.50057,1.50922
8117,Cuca Distribucií_,42.505113,1.518628
8119,Dakota,42.508026,1.532359
8121,Dandy Esports,42.509065,1.543584
8125,Daytona 2000 SL,42.542603,1.733836
8129,Decotres (Deco 3),42.508264,1.523004
8135,Denver,42.508493,1.534178
8137,Desigual,42.508161,1.530785
8143,Dinou d'Abril - 19 d'Abril,42.508315,1.534127
8147,Dirk Bikkembergs,42.508566,1.534832
8151,Ovs Kids,42.50786,1.523476
8153,Dubtes,42.507762,1.520775
8155,Dugar,42.505045,1.525469
8159,D'Votion,42.542971,1.732214
8161,Edifici del Telecabina de Canillo,42.565843,1.601855
8163,El Basar de l'Automobilista,42.501481,1.510877
8167,El Celler del Pirineu,42.507809,1.521022
8169,El Graner de Paris,42.507965,1.522977
8173,El Pergamí_,42.465966,1.491858
8175,El Punt,42.465665,1.49188
8177,El Quiosc (Punt de Trobada),42.447449,1.481996
8181,El Taller,42.508468,1.534279
8189,Elit Auto / Lexus,42.512922,1.537085
8193,En Grup,42.501592,1.519546
9164,Orly,42.507939,1.52482
8201,CCA - SUPER U,42.508046,1.533537
8632,Grup Aurí_ Jardiners,42.476365,1.489489
9166,OrtopíÂdia Albert Llovera,42.509978,1.531858
9168,OrtomíÂdic OrtopíÂdia Jordi Flaquí©,42.512661,1.53512
8636,Campus,42.542762,1.734888
9170,OrtopíÂdia Tejero,42.507394,1.531894
8212,Esports Altitud,42.507607,1.533325
9172,íñs d'Or,42.508153,1.529205
9178,Oxanla,42.509879,1.531461
9180,Oysho,42.508157,1.531327
9182,Paddock Moto,42.543578,1.7315
9186,Panther Pelleteria,42.536766,1.580562
9189,Papereria Cric,42.552503,1.540042
9190,Papereria La Girgola,42.510757,1.541745
9194,Papereria Premsa Tadora Joguines,42.545801,1.51414
8222,Esports Caubella,42.544679,1.475462
9198,Rellotgeria Patagonia,42.507475,1.530152
9200,Patxoca,42.507991,1.53399
8228,Esports El Punt,42.447322,1.482038
8232,Esports Elit,42.567394,1.602342
9204,Peak Performance,42.508693,1.534671
9206,Pebre Blau,42.545862,1.514421
8656,Centre Comercial Hiper Andorra - E.Leclerc,42.508347,1.532271
9208,Peixateria Fernandez,42.534924,1.582026
8234,Esports Espunyes,42.579551,1.641426
8236,Esports Eternal 3,42.465651,1.49177
9683,Sussi,42.508643,1.538738
8659,Ikka's,42.507327,1.529044
9210,Pelleteria Aries,42.508487,1.522229
19217,Shana,42.508689,1.539153
9212,Pelleteria Aries,42.507599,1.522379
8240,Esports Jorma Bike,42.462635,1.490259
19218,Alex Sneackers,42.508699,1.534958
8242,Esports Jorma Ski,42.462722,1.490241
19219,NIKE,42.508699,1.534958
9214,Pepe Jeans,42.508693,1.534671
19220,Natura,42.508699,1.534958
8244,Esports Jorma Trekking,42.462655,1.490262
9216,Perfumeria Ariane,42.543287,1.734945
8246,Esports Lasmolles,42.54099,1.733677
19221,Sportech - Sports Outlet,42.508699,1.534958
9218,Perfumeria Cases-Baro,42.46511,1.491781
9697,Taller Dinamic,42.499839,1.508857
8250,Esports Llobet,42.509125,1.529781
9699,Taller M. Vaz,42.503089,1.519863
9220,Perfumeria El Trianon,42.508921,1.528779
19230,Quicksilver,42.508699,1.534958
8252,Esports Míægic Bikes,42.508963,1.536412
9701,Taller Mecanic Motos Quad Rapid - TMMQR,42.511437,1.540682
9703,Taller V.E.C (Vehicles d'Epoca i Col.leccií_),42.561635,1.601227
19232,L'occitane en Provence,42.508686,1.534797
9222,Perfumeria Fruits & Passion,42.511479,1.538448
9705,Tallers K-Jetronic,42.506195,1.51526
8258,Esports Nam,42.461625,1.490544
8262,Esports Pal,42.54519,1.475422
19266,Safari,42.508687,1.534798
9707,Tallers Mateu,42.511425,1.548101
19271,Casa Tudel,42.508719,1.540842
9226,Perfumeria Gala,42.507516,1.520975
9709,Tango,42.508693,1.534671
19272,Supermercat Gautxo,42.509082,1.543567
9711,Tapisseria i Decoracií_ Bigordíæ,42.50542,1.515896
9715,Tecnic Esports,42.53451,1.586781
9717,Tecnojob,42.492194,1.495948
9719,Tecnomobil,42.501012,1.519066
9232,Perfumeria Gala,42.542971,1.731906
9721,Teixido's,42.507239,1.531796
9723,Teixits Joana,42.545427,1.51519
9236,Perfumeria Gala,42.507834,1.523227
20046,LBD - Little Black Dress,42.507661,1.531674
9727,Temptacií_,42.511595,1.537343
8684,Intimitats Dona,42.508396,1.527328
9733,Tendencies,42.508719,1.540972
9735,Tendencies - Un Mon de Cortines,42.532688,1.5758
9737,Textura,42.513673,1.534004
9242,Perfumeria Gala,42.508669,1.536477
22012,Don Pelai 2,42.506712,1.530253
8690,J&M Electrí_nics,42.508547,1.534841
9244,Perfumeria Gala,42.508578,1.535294
9739,The Cigar Shop Andorra,42.508198,1.525769
22014,Centre d'estíÂtica i perruqueria Nova Imatge,42.547104,1.514836
8694,J.D.A. Moto Quad,42.503801,1.514099
9246,Perfumeria Gala,42.542335,1.733261
9741,The Cigar Shop Pas,42.543024,1.735097
22020,Cerveses Alpha,42.569167,1.489207
8696,Jack & Jones / Vero Moda,42.508693,1.534671
9248,Perfumeria Gala,42.542013,1.734078
8698,Jadeita,42.508248,1.529302
22159,Cottet íÍptica i Audiologia,42.508336,1.530675
22160,íÍptica Prestigi,42.508293,1.526739
9250,Perfumeria Gala,42.508679,1.540076
9749,Tocom,42.532807,1.576404
8700,Javier Simorra,42.507253,1.532802
9751,Tocom II,42.506755,1.530385
8702,Jean Louis David,42.507868,1.524506
9753,Top Moto / Honda,42.504742,1.515183
9252,Perfumeria Gala,42.54281,1.733798
9755,Tot Bany,42.509879,1.531421
8704,Jeans Culte,42.508153,1.525791
22234,Diva Erí_tic Centre,42.507934,1.537762
9757,Tot Cuina,42.505036,1.51985
8706,Jean's Parc 2,42.54276,1.733944
9254,Perfumeria Gala,42.542313,1.733155
22290,Supermercat Ecler,42.534949,1.587741
9761,Tota Talla,42.508825,1.541235
9258,Perfumeria Gala,42.543638,1.732854
8296,Esports Pirot I,42.579526,1.650082
8708,Jessica,42.508663,1.538516
9763,Toti,42.506514,1.529414
8300,Esports Pirot III,42.54054,1.733689
22382,Si o Si,42.507553,1.521359
9765,Totled,42.501695,1.512052
8712,Joguines Tic Toc,42.508294,1.527402
9264,Perfumeria Gala,42.542881,1.733336
8306,Esports Pirot VII,42.531705,1.699017
9771,Tramit,42.508491,1.533907
104126,Jormabike Experience,42.508164,1.528879
9266,Perfumeria Gala,42.543163,1.733761
22394,Destil.leries el Serrat,42.580149,1.651174
104127,Jormatrail,42.508164,1.528879
9773,Transbord,42.508295,1.526206
9268,Perfumeria Gala,42.540663,1.733642
8312,Esports Pirot XI,42.564057,1.525657
22396,Floristeria Art i Flor,42.507369,1.520032
9775,Transfert,42.541981,1.733753
8314,Esports Rentaski,42.538589,1.733281
8718,Calzedonia,42.542327,1.733898
22397,Luo Men's Wear,42.50744,1.532923
9272,Perfumeria Gala,42.5425,1.73445
9781,Tu i Jo,42.507932,1.521376
22399,Monicci,42.509972,1.531451
22401,Supermercat del Sud,42.542627,1.731922
9785,Ultimate,42.508703,1.539438
9274,Perfumeria Gala,42.542416,1.733227
104333,Jouí©Club Andorra,42.508478,1.527514
9787,Unipunt,42.50758,1.529739
9276,Perfumeria Gala,42.54326,1.733123
22455,Rustic Corner,42.545522,1.519044
9278,Perfumeria Gala,42.541999,1.733847
9791,Unipunt II,42.545702,1.514807
9280,Perfumeria If,42.508651,1.537965
9793,012 Benetton,42.508699,1.534958
125969,MAVID PAS,42.542913,1.734838
9282,Perfumeria If,42.505705,1.530061
8328,Esports Sportman II,42.540485,1.733742
9795,Uomo Spazio,42.507287,1.529117
22460,Imporex Salut,42.546707,1.513999
8334,Esports Urbans Zones,42.541762,1.733209
126019,Ovs Kids,42.508699,1.534958
8338,Esports Wapiti,42.541188,1.73371
9284,Perfumeria If,42.542384,1.732417
22461,Perruqueria Easy Cut,42.506317,1.521835
9797,Urban,42.508062,1.524814
126025,Viladomat Funicamp,42.535643,1.588112
9799,Uterqí_e,42.508477,1.535157
22754,Jackie jean,42.51008,1.538786
8342,Establiments B. Pantebre,42.508214,1.525866
9286,Perfumeria If,42.50826,1.530493
8344,Establiments Bonell,42.576872,1.666882
126041,Perfumeria Luxury,42.44739,1.481671
8346,Establiments Borges,42.509142,1.539392
9801,Va i Ve,42.506935,1.530683
22756,Boutique Maletes (Punt de Trobada),42.453045,1.486625
9288,Perfumeria Jí_lia Illa Carlemany,42.508537,1.534449
22757,Lolí‚,42.50862,1.536924
8350,Establiments Isidre Planes,42.462499,1.491096
9803,Va i Ve II,42.507493,1.520517
9290,Perfumeria Jí_lia 10,42.508272,1.52607
22758,Chicco,42.507661,1.531674
9805,Va i Ve III,42.508488,1.536268
9294,Perfumeria Jí_lia 15,42.508658,1.540471
131182,Now,42.508636,1.537474
8358,Estacií_ de Servei A.R.A.P.,42.45288,1.487381
9807,Verba & Dpeus,42.509264,1.529986
9296,Perfumeria Jí_lia 18,42.508299,1.531859
9809,Viana Guix i Decoracií_,42.50462,1.523255
28308,Bebe Major,42.5079,1.533591
8362,Estacií_ de Servei Artal 1,42.508125,1.539813
9811,Video Jungla 2,42.512527,1.536305
9298,Perfumeria Jí_lia 2,42.507788,1.523086
33839,U Express Encamp,42.532985,1.577538
8364,Estacií_ de Servei Artal 2,42.510504,1.54812
9813,Viladomat Andorra,42.50821,1.53238
9300,Perfumeria Jí_lia 20,42.508645,1.539391
8366,Estacií_ de Servei Centre Comercial River I,42.4551,1.486314
9815,Viladomat el Tarter,42.579653,1.648077
9302,Perfumeria Jí_lia 22,42.507936,1.524818
8368,Estacií_ de Servei Centre Comercial River II,42.45304,1.486797
37995,Promí_sica Andorra,42.509512,1.542115
9304,Perfumeria Jí_lia 5,42.508617,1.536247
8370,Estacií_ de Servei CEPSA l'Orri,42.506907,1.524568
135919,Skibagbaby,42.506285,1.5218
9819,Viladomat Grau Roig,42.531762,1.69887
9306,Perfumeria Jí_lia 6,42.508412,1.533146
8372,Estacií_ de Servei CEPSA La Bartra,42.521674,1.559093
9821,Viladomat Kilvil,42.508797,1.53815
136159,Els Escaubells,42.497958,1.517362
9308,Perfumeria Jí_lia 8,42.506278,1.529698
8374,Estacií_ de Servei CEPSA Riu Blanc,42.531844,1.5798
9823,Viladomat La Massana,42.54697,1.514375
9310,Perfumeria Jí_lia Andorra,42.508242,1.52749
8376,Estacií_ de Servei CEPSA Fontaneda,42.460221,1.489141
9825,Viladomat Nens,42.508801,1.537328
8378,Estacií_ de Servei CEPSA L'Obac,42.496059,1.506605
9312,Perfumeria Jí_lia Centre,42.508536,1.53495
9827,Viladomat Paul & Shark,42.508892,1.537978
8380,Estacií_ de Servei CEPSA OROS Andorra,42.504754,1.524192
9314,Perfumeria Jí_lia Escaldes,42.508993,1.54316
9829,Viladomat Rí_buls,42.53199,1.69595
137534,Basar Valira Tot Lego,42.509056,1.540736
9316,Perfumeria Jí_lia Onix,42.508327,1.530355
8382,Estacií_ de Servei ELF Oros Cap del Port,42.539955,1.71958
9831,Viladomat Solanelles,42.541982,1.659997
8386,Estacií_ de Servei BP Santa Coloma,42.497257,1.502059
9318,Perfumeria Jí_lia Pas 1,42.542471,1.734401
137536,Caves Manacor,42.580149,1.651174
8788,Kalidas,42.508873,1.529101
9833,Vinci,42.507585,1.524076
9835,Vinci Bis,42.508676,1.538
137573,Comerí_ Ll2,42.506515,1.529133
8388,Estacií_ de Servei BP El Tarter,42.57948,1.639849
9320,Perfumeria Jí_lia Pas 2,42.542337,1.733015
8790,Kars Tallers,42.505117,1.516263
45455,Yorky's,42.507202,1.532732
9322,Perfumeria Jí_lia Pas 3,42.542166,1.732215
138553,L'Escapada - Outlet sabates,42.506545,1.529956
8390,Estacií_ de Servei BP Encamp,42.522214,1.559538
8794,Kiehl's,42.508539,1.534701
45456,Perruqueria Cabells d'Or,42.506115,1.530639
8392,Estacií_ de Servei ELF Valira,42.47418,1.491069
138556,Timberland,42.508566,1.534832
9324,Perfumeria Jí_lia Pas 4,42.54297,1.734106
8798,Kit Descans,42.504758,1.518761
9847,We Ar,42.50803,1.525522
7730,100 % Equip Moto,42.500853,1.509797
45457,Perruqueria Antonia,42.507195,1.521397
8394,Estacií_ de Servei ELF Terres de l'Obac,42.531844,1.5798
9326,Perfumeria Jí_lia Pas 5,42.543069,1.735171
138558,Boulevard 14,42.508176,1.526133
9851,WOM,42.508667,1.536734
45459,Casa Domi,42.508892,1.542675
8396,Estacií_ de Servei ELF Encamp-centre,42.530532,1.572491
8802,K-Tuin,42.508843,1.52856
9853,Xapí_,42.508208,1.52575
9328,Perfumeria Jí_lia Pas 6,42.542766,1.733769
8398,Estacií_ de Servei ELF La Massana,42.550178,1.511151
138592,Casa Folch,42.439262,1.491037
9855,Xapí_,42.506939,1.530662
8808,L&D Esports,42.542273,1.732688
9859,Xarxa Soft Informíætica,42.471163,1.493465
7738,ADAS - Venta de material informíætic,42.51134,1.534248
9330,Perfumeria Jí_lia River,42.454352,1.486842
45463,J.M.S. Productes Americans,42.508999,1.529454
8810,La Bauhaus,42.508125,1.529353
8400,Estacií_ de Servei Bordes d'Envalira,42.560701,1.683944
138632,Poltrand,42.595758,1.526389
7740,ADESA - Reparacions informíætiques,42.51134,1.534248
9861,Xicle - Moding,42.509205,1.539723
8812,La Botiga del TíÂ,42.508151,1.522528
45462,Marcs Goya,42.508082,1.536439
8402,Estacií_ de Servei ELF Ordino,42.550472,1.525796
9332,Perfumeria la Perla,42.508468,1.527723
9863,Yamamay,42.508762,1.537244
7742,Adidas Store,42.508545,1.534443
45464,Tot Natura,42.500288,1.513383
8404,Estacií_ de Servei ELF Santa Coloma,42.496134,1.500074
9336,Perfumeria Maria Lluisa,42.4628,1.490274
9865,Yamamay,42.508687,1.534798
7744,Alaminos Motos,42.509612,1.530866
45473,Basar Ginesta,42.510197,1.532153
7748,Albert Decoracií_,42.506941,1.531193
8818,La Casa del Habano,42.509486,1.539781
9338,Perfumeria Orquidia,42.508314,1.532013
9873,Yons,42.507833,1.529286
9877,Zara,42.50823,1.530921
8820,La Casa del Pneumíætic S.A.,42.503684,1.513919
45474,La Sirena Congelats,42.50645,1.528495
7750,Calí_ats Albert,42.507904,1.520426
9340,The Body Shop,42.508649,1.539934
8822,La Casa Dels Tabacs,42.508661,1.539293
8410,Estacií_ de Servei ESSO,42.53986,1.720026
45506,Sabateria Andarax,42.505751,1.520594
9879,Zener Electrí_nica,42.511783,1.540884
7752,Albert Jove Petit,42.507334,1.531756
9342,Perfumeria Tina,42.507064,1.519048
8824,La Casa Dels Tabacs,42.508748,1.537488
8412,Estacií_ de Servei ESSO,42.498998,1.505438
45507,Perruqueria Nou Contrast,42.506852,1.528973
8826,La Cava 2,42.542868,1.734826
9344,Perfumeria Vicky,42.503957,1.514279
7754,Petit Albert,42.507524,1.521172
8414,Estacií_ de Servei ESSO,42.581856,1.662004
45509,Kars Automí_bils,42.504942,1.515909
7758,Alex Boutique - Outlet roba,42.507887,1.529633
9348,Perruqueria Ana Barroca,42.507611,1.528779
8830,La Floristeria del poble,42.536243,1.58246
45510,Renova Imatge,42.506742,1.531358
8832,La Gespa Jardineria,42.545446,1.519087
9350,Perruqueria Bohemia,42.508689,1.540057
8418,Estacií_ de Servei Garal - Ecler,42.533574,1.585604
7760,Alex Boutique,42.508307,1.531909
8420,Estacií_ de Servei Garal - Ecler,42.5366,1.589163
8834,La Llibreria,42.508616,1.529267
7762,Stonefly,42.509027,1.528803
9352,Perruqueria Roc Dolors,42.566398,1.599179
45609,Inter Cí_pia Copisteria,42.506268,1.531148
8836,La míæ de la Mar,42.507485,1.520544
8422,Estacií_ de Servei JULI,42.498123,1.503925
7764,Alex Boutique,42.508489,1.526992
45610,Inter Cí_pia 2 Copisteria,42.505701,1.520423
9354,Pesca Aventura,42.543048,1.731859
8842,La Mina,42.509027,1.539931
7766,Alex Boutique,42.508566,1.534832
45639,Central del Recanvi,42.495163,1.498017
9358,Phonos,42.541793,1.733452
8426,Estacií_ de Servei PRAT SOLA,42.534161,1.579931
8846,La Terminal,42.508531,1.533856
7768,Alex Boutique,42.508444,1.527199
45640,Merceria Lola Botona,42.506202,1.530996
9360,Piccadilly,42.50875,1.537303
8428,Estacií_ de Servei REPSOL - ENCAMP,42.533354,1.584641
8848,Lacoste,42.508274,1.52611
45641,Carlin Ofimarket,42.506331,1.531308
7770,Alex Boutique,42.508663,1.530318
9364,Pollyanna Dona,42.508683,1.536697
8430,Estacií_ de Servei REPSOL - ESCALDES,42.508355,1.54506
8850,Lacoste - Illa Carlemany,42.508546,1.53484
45764,D-Kora,42.506115,1.529279
7772,Lacmann - Outlet Sabates,42.507773,1.529728
8432,Estacií_ de Servei REPSOL - ESTELA 1,42.505037,1.515185
45765,Bugaderia Valdeorras,42.506861,1.520937
7774,Alex Boutique - Outlet nens,42.506545,1.529956
8434,Estacií_ de Servei REPSOL - ESTELA 2,42.505052,1.515348
45766,Supermercat Sant Moritz,42.573483,1.483159
7778,Alfa Electrí_nics,42.508187,1.525764
9376,Pneumíætics Unio,42.504663,1.522757
8856,Les 1000 Pipes,42.508505,1.532314
45767,Moda Alexandra,42.506615,1.530659
8436,Estacií_ de Servei REPSOL - SANTA COLOMA,42.490613,1.495133
9378,Pneumíætics Vilana,42.473806,1.491909
45768,La Teva Idea de Casa,42.506115,1.529279
8438,Estacií_ de Servei Sant Marc,42.559193,1.589311
9380,Pollyanna Home & Dona,42.508525,1.534057
8860,Levi's,42.508693,1.534671
9382,Pollyanna Home & Dona - Molines,42.50877,1.53789
45773,Toc's,42.508444,1.520769
7790,Alimentacií_ Silleda,42.511423,1.534207
9384,Pollyanna Nadons,42.508655,1.537973
8868,Llenceria Merceria Fanny,42.508966,1.542903
45781,Perruqueria Ma íóngels,42.506441,1.529131
8444,Estacií_ de Servei TOTAL Araujo,42.537888,1.72075
9386,Pollyanna Nens,42.508981,1.540782
7801,Andorrana Moto Accessoris,42.503848,1.514131
45806,Diana Descans,42.506265,1.528873
8874,Llibreria Llibre Idees,42.508526,1.534612
8446,Estacií_ de Servei TOTAL Canillo,42.565938,1.596035
9388,Pollyanna Seventeen,42.50753,1.530522
7803,Anna,42.507247,1.529211
45807,Q&Diet,42.507297,1.530982
8878,Llibreria Francesa,42.508812,1.541228
8448,Estacií_ de Servei TOTAL Cedre,42.496767,1.501211
9390,Pollyanna Seventeen,42.508683,1.536697
45808,Perruqueria Stop Model,42.508493,1.522495
9392,Pons Ceríæmica i Banys,42.500855,1.509808
8450,Estacií_ de Servei TOTAL La Margineda,42.479448,1.48912
8882,Llibreria i Papereria Granma 2,42.512408,1.535447
7811,Armeria Andorrana,42.506288,1.529726
45809,Supermercat La Posta,42.577236,1.665099
8452,Estacií_ de Servei TOTAL La Massana I,42.536368,1.520936
8884,Llibreria la Puí_a,42.506905,1.521061
7813,Armeria Dolsa,42.507795,1.524289
45810,Esports Canaro,42.579988,1.659718
8454,Estacií_ de Servei TOTAL La Massana II,42.536667,1.520193
8888,Llorer&Co,42.506589,1.531818
45811,Merceria Labors i Retalls,42.510373,1.53311
8456,Estacií_ de Servei TOTAL La Riberola,42.453382,1.487245
8890,Lopti-k,42.50799,1.528844
7821,Art i Pedra,42.505494,1.527716
45812,Tabacs El Tamarro,42.510398,1.53273
8892,L'íñs Blanc 2,42.542797,1.73272
8458,Estacií_ de Servei TOTAL La Traba,42.574459,1.620955
7823,ATIRR,42.500267,1.508662
9400,Princep Electrí_nic,42.507281,1.531603
45813,Sanitat House,42.508184,1.534087
8460,Estacií_ de Servei TOTAL Pic Maiíæ,42.540183,1.720211
9402,Pull&Bear,42.50874,1.536021
8896,N. 10,42.507627,1.522424
45816,Tiki Shop,42.509259,1.529982
7827,Auteuil,42.54233,1.733745
8462,Estacií_ de Servei TOTAL Port d'Envalira,42.539501,1.72076
9406,Punt a Punt,42.507526,1.521175
7831,Auto Competicio,42.491158,1.495524
8466,Estacií_ de Servei TOTAL Sant Eloi,42.457443,1.486872
45817,Chocolat Factory,42.508291,1.534113
9412,Centre Comercial Punt de Trobada - E.Leclerc,42.439294,1.476116
8906,Macro 2,42.508378,1.527462
45821,Xarcuteria IbíÂrica,42.50774,1.531766
8468,Estacií_ de Servei TOTAL Santa Coloma,42.497598,1.503464
7833,Auto Diesel Volvo SA,42.467787,1.49311
9415,Punt Roma,42.508323,1.532968
8910,Madison,42.541949,1.732514
45820,Perruqueria K & S,42.50751,1.521358
8480,Estacií_ de Servei BP Sant Juliíæ de Lí_ria,42.45509,1.486904
7835,Auto Electric Bravo,42.500577,1.509221
8912,Magandor,42.544443,1.732149
7837,Auto Electricitat Celso,42.505034,1.52531
9422,Centre Comercial Pyrí©ní©es Andorra (Pas de la Casa),42.543372,1.732405
45822,Comercial J.A,42.507413,1.531726
8924,Mango - MNG,42.508489,1.535082
8926,Mango Outlet,42.508788,1.53079
9431,Pyrí©ní©es Motors / BMW / MINI / BMW Motorrad,42.482149,1.489875
45830,Solarcheck,42.49771,1.502148
7839,Auto Moto Racing II,42.5423,1.73189
8930,Marina 1,42.468282,1.492462
45902,Audio Limit,42.506523,1.529133
7841,Auto Moto Racing I,42.500947,1.510022
9435,Quars Centre,42.508394,1.529939
8934,Marquet Gourmeterie,42.509533,1.539759
8936,Marrecs,42.508361,1.526445
9437,Quars Escaldes,42.508764,1.536225
7843,Auto Moto Racing III Urban,42.508669,1.538324
9439,Quars Escaldes (Luxe),42.508764,1.536225
8942,Marroquineria Safari,42.508742,1.533662
45951,Albert Jove,42.507334,1.531756
7845,Auto Rallye S.A.,42.50104,1.518114
8498,Ferba S.L.,42.506197,1.528692
8504,Ferreteria del Pas,42.542146,1.731494
46063,Quadre nostre,42.506982,1.531775
8946,Marroquineria Safari (Pas de la Casa),42.543169,1.731854
7847,Auto Recanvis March,42.468128,1.492598
9445,Quars L'Illa,42.508526,1.534612
8506,Ferreteria del Poble,42.512543,1.536252
8948,Marroquineria Safari (Pas de la Casa),42.542894,1.735038
9447,Quars Megastore,42.50869,1.52963
7849,Auto Seleccio Ford,42.505224,1.521992
46074,Esports Pic Negre 5,42.577867,1.648522
8960,Martí_ Equipaments,42.531409,1.573142
8512,Ferreteria Mavid S.A.,42.476359,1.48949
9453,Quars Megastore (Luxe),42.507997,1.525371
7853,Auto Recanvis March,42.49044,1.49631
8962,Martimotos,42.542349,1.732735
8518,Ferreteria Principat,42.464115,1.490838
7855,Automí_bils Pyrí©ní©es / Mercedes-Benz,42.482149,1.489875
9457,Quars Pas 1 (Luxe),42.542331,1.733836
8964,Martimotos / Dainese D-Store,42.504309,1.514614
46076,Zoom.in,42.508975,1.528623
9459,Quars Pas 3,42.542354,1.734043
7859,Automotor Servei S.A.,42.493507,1.497745
46080,La Tendeta,42.674502,2.942735
8966,Martimotos / Enducross & RoadRacing,42.504343,1.514646
8970,Massimo Dutti,42.508519,1.535543
9463,Quars Radio Club,42.508648,1.540304
8524,Filatelia M. Abad,42.515,1.531696
46081,Dulce Diseí±o,42.508941,1.539349
7861,Auto-Stop,42.493157,1.497817
8972,Masters 9,42.542333,1.733238
9465,Records El Matiner,42.508956,1.528848
8526,Floristeria íóngels,42.512348,1.534867
46082,Mi Natura,42.507307,1.519779
7863,Luo Men's Wear 2,42.507877,1.523658
8974,Materials Riba S.A.,42.500864,1.512567
46128,Outlet Sempre Moda,42.505597,1.528142
9467,Quiosc Punt i Ratlla,42.50827,1.521641
7867,Basar Aragones,42.50822,1.521606
8978,Maxi Mercat,42.543511,1.732796
8530,Floristeria Flors del Paradí_s 2,42.507809,1.523226
9469,Quiosc Toni,42.509549,1.540755
46129,Equivalenza,42.506878,1.530373
7869,Basar Bon Dia,42.506672,1.530265
9471,Radio Auto Muntatges JR2,42.532896,1.577373
8532,Floristeria Isidre Planas,42.463818,1.490857
7871,Basar Josep Ribot,42.462515,1.491123
46132,G.E.A.,42.507073,1.526068
8986,Menfis,42.507389,1.520224
9475,Rami,42.508734,1.541139
7873,Basar Valira Trens,42.508521,1.540935
46133,Aqua Fauna,42.505881,1.528875
8536,Floristeria Magní_lia Flors,42.50815,1.522589
8988,Mephisto Shop,42.507872,1.533172
9477,Natturals,42.506993,1.531155
46134,Perruqueria Enrico Noval,34.239654,-118.367082
7875,Basar Valira 7,42.509056,1.540736
7877,Basar Valira Joguines,42.509204,1.540717
46409,Supermercat Veritas,42.507995,1.528886
8540,Floristeria Punt Verd - Centre de Jardineria,42.493744,1.498453
9479,Rapsodia,42.507208,1.531375
9481,Rdecora,42.507039,1.529988
8994,Merceria i Confeccions Lidia,42.506352,1.515759
9483,Recanvis Molina,42.493155,1.49782
8996,Merceria Marisol,42.534079,1.515567
9485,Records de La Massana,42.546062,1.514069
8544,Font del Marge,42.504445,1.515024
9499,Ricard Mora Antiquari,42.510563,1.541702
8546,Font del Marge II,42.541501,1.732087
8998,Mes Labors,42.535283,1.581956
8550,Foto Clic,42.50862,1.536924
46419,Alain Afflelou Andorra,42.508876,1.534746
9501,Rip Curl Shop,42.508545,1.534443
9000,Microsistemes Principat,42.504637,1.518677
7885,Bershka,42.508438,1.53024
8554,Foto Míægic,42.50754,1.527443
9503,Rival,42.507308,1.530583
7889,Bigfoot Esports,42.538505,1.519547
9012,Calzedonia,42.508493,1.534194
8558,Foto Peig,42.508502,1.522559
8560,Fotografí_a Claverol,42.508481,1.527482
9014,Mí_tics,42.50858,1.53631
9020,Mobi Plus,42.505526,1.519324
9514,Roca & Ribes,42.508758,1.533108
7895,Botons Basic,42.508101,1.522787
46662,Supermercat Moles,42.574801,1.481846
9516,Outlet Roca & Ribes,42.507825,1.52328
9022,Mobles Andorrans,42.499221,1.506374
46663,Clip perruqueria,42.506485,1.529299
7899,Boutique Cathyan,42.54552,1.51496
9520,Royal Cigar Encamp,42.536086,1.582197
9024,Mobles Diana,42.506835,1.52878
7901,Boutique Outlet (Punt de Trobada),42.44739,1.481671
9522,Royal Cigar Pas de la Casa,42.543708,1.732643
9026,Mobles la Fabrica,42.507234,1.527483
46665,Bespoke Closet,42.507621,1.52243
9526,S.O.S. Informíætica,42.511754,1.540618
7905,Buick,42.508633,1.53712
9028,Mobles Sant Roma,42.512333,1.539116
46666,Esports Dansa-Jazz,42.50759,1.52391
9034,Modes KMK,42.46386,1.491389
9528,Sabateria Andarax 2,42.503923,1.514241
46668,Salí_ de bellesa Semiramis,42.507186,1.531468
7907,C.d.C.,42.507267,1.531018
9530,Sabateria Clarks,42.507538,1.533259
9036,Molo,42.506846,1.529872
9532,Sabateria Escarpi,42.50704,1.529371
7911,Calí_ats Pavi,42.509993,1.542106
9038,Mí_n de l'infant,42.447417,1.481985
46678,Outlet Sempre Moda 2,42.542774,1.734449
9534,Sabateria Galy,42.508347,1.529331
7913,Republic of Kids,42.508699,1.534958
9536,Sabateria Galy,42.50879,1.533344
9044,Caprabo - Illa Carlemany,42.508686,1.534797
46679,K-Perruquers,42.506485,1.529299
9048,Moto Equip,42.543175,1.734359
46681,A Concept,42.507324,1.529954
9052,Moto TíÂcnica Pirinenca,42.490886,1.495279
9538,Sabateria la Forí_a,42.508238,1.536283
7917,Carmania,42.494445,1.498952
9540,Sabateria Laura,42.5429,1.731983
9054,Moto Tríæfic,42.541781,1.733563
46682,Cebado,42.507398,1.529871
9542,Sabateria Lottusse,42.50859,1.535866
7919,Cíærniques Jaume S.A.,42.531635,1.573008
46684,Montserrat,42.507002,1.532427
9544,Sabateria Marta,42.465139,1.492961
9058,Motor Espai / Skoda,42.493153,1.497817
46947,Double Agent,42.510075,1.537884
9548,Sabateria Muntanya Blanca,42.508946,1.528838
7921,Cíærniques Paulo,42.505503,1.519005
9062,Motorauto S.L. / Opel,42.502855,1.513133
46958,Flormar Professional Make Up,42.50853,1.533495
7923,Carnisseria de les Escoles,42.510668,1.54128
9552,Sabateria Safari,42.542386,1.734196
9064,Motorretro,42.466842,1.491909
8602,Garatge Victor,42.506893,1.518554
7925,Carnisseria Nova,42.566056,1.598446
46959,Corner by Gallery,42.507873,1.523679
9554,Sabateria Sport,42.509138,1.539931
9068,Moto-Servei,42.501801,1.511784
46960,The Apartment,42.507727,1.520543
9558,Sabateria Tosca,42.507868,1.529597
7929,Carnisseria Saboya,42.50754,1.519933
9072,Motosprint Centre,42.500722,1.508668
47042,MO,42.507692,1.522536
9562,Safari Míæster,42.507801,1.528728
7931,Carnisseria Vilalta,42.510075,1.54094
9076,Mr. Bricolage,42.506673,1.523436
47043,The Body Shop,42.542778,1.734761
47044,Patrick Cava,42.542779,1.731836
7933,Carpisa,42.508687,1.534798
47052,La Botiga,42.545552,1.515024
7935,Carrousel,42.508772,1.540084
9082,Musical Andorra,42.467115,1.492062
9084,Mymac,42.509281,1.537911
47448,Surf Zone Quiksilver,42.508581,1.534325
9580,Centre Comercial Sant Eloi,42.463027,1.491501
9086,Naf Naf,42.508446,1.53303
9583,Sant Hubertus,42.507987,1.525493
9088,Napapijri,42.508693,1.534671
47450,Misteri Perruqueria,42.545549,1.5148
7941,Casa & Colors,42.508547,1.534841
9585,Sastreria i Sabateria Sport,42.508833,1.541331
9092,Natur Paper,42.469259,1.493288
7943,Casa Bella,42.506988,1.518919
47452,K'DO,42.509701,1.542048
9589,Sauda,42.508906,1.539408
9096,Nens,42.507526,1.521124
9591,SEMIC - Serveis Microinformíætics Catalunya S.A.,42.505652,1.519681
47510,Supernenas,42.507023,1.51877
9593,Serralleria Bons,42.545427,1.518843
7945,Casa Broto & Ives de Lorme,42.508715,1.541119
9595,Servei Electric Monroc,42.503403,1.522854
47511,Supermercat Compra Bí© (Dia),42.54633,1.521851
7947,Casa Canut,42.508566,1.535712
9100,New Port,42.508663,1.540682
9599,EXCOM,42.532241,1.573936
9601,Seuwagen,42.505226,1.520133
9102,Nice Things,42.506965,1.530951
7949,Casa Danesa,42.508066,1.522989
9104,Nou Circuit,42.503174,1.513482
47514,Natur House,42.468909,1.493325
9603,Shibori,42.508179,1.531515
9106,Novetats Mandalay,42.509057,1.543488
9605,Sí_ o No Comunicacií_,42.469976,1.497982
9108,Novetats Tomas,42.508272,1.541023
7951,Casa Pintat,42.464256,1.490749
7953,Casa Viva,42.508533,1.534556
9607,Sil Informíætica,42.510103,1.532056
9110,Now,42.507904,1.53391
9112,Nuí±ez Disseny,42.50984,1.540108
9611,Sistema Cuina,42.509796,1.540639
7957,Cashmere Shop,42.508348,1.53028
9114,OFI-3,42.505052,1.518983
7963,Catimini,42.507207,1.529262
9116,Ofijet,42.506029,1.528991
9613,Soho,42.508475,1.532941
9118,Ofima,42.511739,1.541365
9120,Olympia Centre Pas I,42.541833,1.733785
9615,Soler & Solca Llenceries,42.507841,1.533853
9122,Olympia Centre Pas III,42.541303,1.732269
7965,Cava Benito,42.508586,1.534232
9124,Olympia Esports,42.508722,1.528205
9617,Sonia Nova,42.542333,1.733756
9126,Olympia Esports Outlet Quiksilver & Outlet,42.567814,1.601939
7969,Celio,42.508317,1.530085
9128,Olympia Esports II,42.508392,1.532899
9619,Sonimag,42.508392,1.53274
9621,Sorteny Modelisme,42.509548,1.541347
7973,Celio Pas,42.542785,1.734759
9132,Olympia Teixits,42.507595,1.521936
9134,O'neill,42.508545,1.534443
9623,Soussi,42.533773,1.580287
7977,Cent Mobel,42.50579,1.528806
9136,íÍptica Creu Verda,42.464269,1.489888
9627,Sperber Pelleteria,42.507791,1.532617
9138,íÍptica Oftalmica Pasteur,42.508695,1.532636
7979,Cent Mobel 2,42.50583,1.528867
9629,Stela Andorrana / Honda,42.505066,1.515072
9140,íÍptica Pasteur II,42.508094,1.528559
9633,Stradivarius,42.508519,1.535543
53391,Tiffosi,42.50869,1.534686
9142,íÍptica Pasteur III,42.508173,1.52431
7981,Central del Pneumíætic S.A. / FIRSTSTOP,42.499331,1.506561
9144,íÍptica Pasteur IV,42.509027,1.539931
9635,Subministres Podologics i MíÂdics,42.507463,1.531879
53456,Armani Jeans,42.508268,1.531553
9146,íÍptica Pasteur V,42.543766,1.516386
7985,Centre Andorra de Decoracií_ 2 (CAD2),42.507127,1.52571
9148,íÍptica Pasteur VI,42.508488,1.529978
53501,Desigual,42.508736,1.534689
7987,Centre Auditiu Andorríæ,42.510277,1.532577
9150,íÍptica Pasteur VII,42.508626,1.539935
53520,Diesel,42.50883,1.535235
9641,Supermercat Continent,42.543661,1.733163
9152,íÍptica Sorteny,42.510625,1.541026
9154,íÍptica Visual,42.509011,1.539996
9643,Superdry,42.508687,1.534798
9645,Supermercat Alfa,42.543192,1.733418
9158,Options +,42.508353,1.531088
9647,Supermercat Central,42.543718,1.732492
67776,JAM S.L,42.500889,1.518536
9160,Orfi Pelleteria,42.509005,1.529165
9649,Supermercat Central II,42.542333,1.732197
67783,Detalls de la llar,42.505319,1.528375
9651,Supermercat Central III,42.542349,1.732994
67863,Esports Surf Evasio 1,42.539442,1.733471
9653,Supermercat Eco,42.535951,1.581916
67865,Esports Surf Evasio 2,42.540803,1.731843
8007,Centre í_ptic,42.507603,1.532571
9655,Supermercat Eco 2,42.504967,1.514807
9657,Supermercat Explosií_,42.543742,1.732345
73035,Auto Muntatges km 0,42.507691,1.534286
9659,Supermercat Gourmet,42.542149,1.732409
8011,Chantelle,42.508687,1.534798
76705,Auto sistema,42.508511,1.534071
9661,Supermercat Ideal,42.542469,1.73433
76707,MOA,42.50847,1.529761
76731,Pintureka,42.497567,1.50289
9663,Supermercat La Cava,42.543137,1.734233
78487,ANDORobots,42.507073,1.526445
9665,Supermercat La Solana,42.541781,1.732737
78490,DERMANDTEK,42.510357,1.534077
93465,Jouí©Club Andorra,42.508687,1.534798
9667,Supermercat MagicPreu III,42.541985,1.732412
93482,Jouí©Club Andorra,42.510019,1.536631
9669,Supermercat Meta,42.543305,1.732232
8027,Cierco Tabac,42.508675,1.540757
9671,Supermercat Petit Preu I,42.542991,1.733469
9673,Supermercat Petit Preu II,42.542997,1.731929
8031,Circuit electrí_nic,42.508696,1.539378
9675,Supermercat Pic Mari,42.542726,1.734686
8035,CO2,42.507658,1.520275
8037,CO2,42.508681,1.540478
8039,Coco Bis,42.507787,1.524052
8041,Comelec,42.496205,1.50061
8043,Comerí_ Comapedrosa,42.509185,1.5412
8047,Comerí_ Emian,42.512224,1.539309
8049,Comerí_ Espanya,42.468116,1.492521
8053,Comerí_ Espuí±es,42.579579,1.641423
8055,Comerí_ Favorit,42.541764,1.732753
8057,Comerí_ Gallard,42.503535,1.513755
8063,Comerí_ Joan,42.543009,1.735075
8065,Comerí_ la Lluna,42.542474,1.734378
8069,Comercial Chamen,42.506528,1.517916
8073,Comercial Graells,42.507847,1.536941
8075,Comercial Rivas,42.51427,1.532282
8077,Comercial Sup-Auto,42.504709,1.523033
8081,Comunicacií_ i Televisors,42.505204,1.519873
8083,Comunicacions digitals - DIGICOM,42.506083,1.521773
8089,Confeccions Aries,42.508471,1.522146
8091,Confetti,42.466791,1.492547
8093,Confort Oriental,42.507709,1.521904
8097,Conrad Níæutica,42.508687,1.54006
8099,Consumibles i Informíætica Pirinencs,42.505171,1.526349
17048,Options,42.508313,1.531131
22233,Eros Erí_tic Centre,42.497417,1.502519
47513,L'Escala Electrí_nic Store,42.545185,1.733628
8490,Eurovisií_,42.508491,1.533907
8218,Esports Calbí_,42.566536,1.600641
8220,Esports Calbí_,42.576344,1.668547
47449,Napapijri by Sports Calbí_,42.576862,1.667268
8320,Esports Sant Moritz,42.571827,1.484232
8322,Esports Sant Moritz Crest,42.573083,1.470723
8326,Esports Sensacií_,42.544505,1.515569
19280,Triatlí_ Bike Shop,42.508584,1.536829
8406,Estacií_ de Servei ESSO,42.544665,1.515625
8408,Estacií_ de Servei ESSO,42.542315,1.591371
8324,Esports Sant Moritz Pistes,42.573571,1.46991
8208,Esports Albert,42.508703,1.536428
8214,Esports Bauseli,42.548243,1.513233
8216,Esports Bonet,42.543929,1.47769
8224,Esports Cubil,42.578685,1.632167
8238,Esports Everest,42.535129,1.587854
8248,Esports Les Planes,42.563421,1.526791
8256,Esports Montreal,42.507158,1.519249
8264,Esports Pic Negre 1,42.543815,1.516497
8266,Esports Pic Negre 11,42.546688,1.513962
8268,Esports Pic Negre 12,42.546313,1.513863
8270,Esports Pic Negre 13,42.532593,1.701062
8272,Esports Pic Negre 14,42.534817,1.587583
8274,Esports Pic Negre 15,42.541283,1.73213
8276,Esports Pic Negre 16,42.541572,1.733836
8278,Esports Pic Negre 2,42.572425,1.483911
8280,Esports Pic Negre 3,42.57283,1.470481
8282,Esports Pic Negre 4,42.578176,1.648829
8284,Esports Pic Negre 6,42.57805,1.648244
8286,Esports Pic Negre 7,42.569276,1.488248
8288,Esports Pic Negre 8,42.577015,1.66623
8290,Esports Pic Negre 9,42.566252,1.600917
8292,Esports Pirineu,42.57659,1.668184
8308,Esports Pirot VIII,42.50409,1.522695
8298,Esports Pirot II,42.540862,1.731941
8302,Esports Pirot IX,42.541751,1.517889
8304,Esports Pirot V,42.54249,1.730896
8310,Esports Pirot X,42.566525,1.600646
8316,Esports Roc Vertical,42.565712,1.596999
8318,Esports Rossell,42.550577,1.510875
8416,Estacií_ de Servei ESSO Sant Juliíæ de Lí_ria,42.468575,1.492419
8348,Establiments Garrallíæ,42.546595,1.513892
8352,Establiments Lotus,42.507775,1.520777
9693,Tagore,42.507081,1.518753
8013,Cierco Alimentacií_,42.524363,1.56261
8015,Cierco Alimentacií_,42.495093,1.498252
8021,Cierco Alimentacií_,42.454989,1.48681
8025,Cierco Alimentacií_ IV,42.579356,1.639983
8442,Estacií_ de Servei TOTAL Aixovall,42.476922,1.490734
8424,Estacií_ de Servei PIRINEU,42.4625,1.502799
8440,Estacií_ de Servei TARRADO,42.567016,1.600815
45460,Marcs Estil,42.502112,1.509744
8816,La Casa del Fumador,42.506512,1.518109
7817,Art i Fusta,42.543801,1.516395
45770,Perruqueria Sublim,42.507356,1.530018
8484,Eureka-Kids,42.508681,1.538378
8486,Euro íñptica,42.507429,1.521649
46071,Exprí©s Tabacs i Licors,42.508682,1.527964
8494,Famagusta Professional,42.50998,1.541865
8516,Ferreteria Principat,42.497292,1.509083
8520,Ferreteria Principat,42.536197,1.582369
8510,Ferreteria i Drogueria Arnau,42.546409,1.514002
8522,FilatíÂlia Andorrana,42.506899,1.51923
45904,Fitness Solutions,42.506943,1.528796
8534,Floristeria Les Roselles,42.510339,1.532335
8538,Floristerí_a Marina,42.509987,1.540062
8542,Flors Annabel,42.506144,1.530656
8528,Floristeria Flors del Paradí_s,42.514689,1.53182
45511,Foto Imatge,42.50681,1.531142
8562,Fotolab,42.467095,1.492403
8552,Foto Led,42.508198,1.525769
8564,Franck Provost-Perruquer,42.508545,1.534462
8568,G de Guax,42.507095,1.531187
8570,G de Guax Bis,42.507161,1.531116
9270,Perfumeria Gala,42.543237,1.735368
9224,Perfumeria Gala,42.508627,1.539935
9228,Perfumeria Gala,42.54515,1.515248
9230,Perfumeria Gala,42.536694,1.583118
9240,Perfumeria Gala,42.508365,1.526905
9262,Perfumeria Gala,42.508922,1.528846
46676,Galíæctica Alimentacií_,42.507296,1.531487
8688,IT,42.543074,1.73529
46130,Dolí_os Galileu,42.507872,1.523507
8592,Gallery Andorra,42.508818,1.528488
8594,Ganden,42.508345,1.521741
46417,Estacií_ de Servei B.P. Encamp Centre 2,42.53357,1.585853
9677,Superpas 2,42.543414,1.734644
9679,Superpas I,42.566473,1.599211
7782,Alimentacií_ Krishna,42.506917,1.530388
139464,Motocard,42.489479,1.494363
139463,Motocard,42.489479,1.494363
8596,Garatge Bou,42.505024,1.5227
46418,Estacií_ de Servei B.P. Encamp Centre 1,42.536665,1.589246
7784,Alimentacií_ la Llacuna,42.507816,1.523202
7780,Alimentacií_ Fresc Or,42.510719,1.539567
7788,Alimentacií_ La Pubilla,42.512677,1.538614
8608,Gil Mobiliari,42.508161,1.538166
67872,Perruqueria Glamour,42.505354,1.51867
45447,Glob Tabac,42.507492,1.53313
8612,GM Proteccií_ Laboral,42.506879,1.518465
8614,Golf Master,42.508622,1.535927
9745,The North Face,42.508545,1.534443
8616,Golf Pro,42.507943,1.533896
8710,Supermercat JMM,42.542236,1.732653
7796,Centre Comercial Andorra 2000,42.505667,1.529452
14255,Centre Comercial Pyrí©ní©es Andorra,42.507877,1.523658
8638,G-Star Raw,42.508693,1.534671
8640,Guess,42.508305,1.52711
9743,The Hair Shop (Le Salon),42.508815,1.530149
140262,@ Centre Internet Point,42.508609,1.539341
22293,HíÂlios Home,42.507553,1.521359
9817,Viladomat Signature,42.508465,1.539705
7807,Aqua Nova,42.507742,1.5207
8356,Estacií_ de Servei - Gasolinera del Pas (GASOPAS),42.546627,1.730746
9372,Pneumíætics Sam II,42.467659,1.492342
9374,Pneumíætics Sam III,42.503747,1.514005
9370,Pneumíætics Sam,42.500373,1.508758
9368,Pneumíætics Pirineu,42.458072,1.486201
7736,ABJ Pneumíætics S.L.,42.484611,1.490052
8644,Hiperpas I,42.543686,1.732439
8646,Hiperpas II,42.543671,1.73142
8648,Hiperpas III,42.543485,1.732321
8650,Hiperpas IV,42.543346,1.735507
7915,Urban Beauty,42.507222,1.52696
8183,El Teu Estil Teixits,42.506603,1.517948
9779,Triedre,42.509028,1.531424
9509,Centre Comercial River,42.454344,1.486419
8606,Geox Store Andorra,42.508556,1.534556
7939,Carving Esports,42.555466,1.533277
8652,Hugo Boss,42.508693,1.534671
8663,Illa Carlemany Centre Comercial,42.508687,1.534798
8666,Imaginarium,42.506806,1.530578
8668,Imoto,42.508268,1.532143
8674,Incí_s,42.50873,1.541289
8862,L'Indret I,42.507977,1.533958
140398,Landevity,42.506286,1.52181
8005,Centre d'EstíÂtica XíÂnia,42.512285,1.535433
76736,Centre d'estíÂtica Verí_nica Bosa,42.50666,1.529448
7991,Centre Carita Paris - Anyí_s,42.532745,1.523433
8678,Infomobel - Informíætica i Mobiliari Elit,42.503893,1.522969
8680,Intersport Outdoor,42.499752,1.507135
140436,Esports Bringuí©,42.618721,1.539199