place_id,name,lat,lng,types,rating,address,ID,vicinity
ChIJNaR8o_pfrxIRnX9vpMiDlP4,ESPORTS ROSSELL,42.55063309999999,1.5109413,"['store', 'point_of_interest', 'establishment']",3.4,"Av. del Ravell, 34, AD400 La Massana, Andorra",09b9ed6391d56f4d29dcc07154c31ad8ea589584,"Avinguda del Ravell, 34, La Massana"
ChIJ_3kd9TN9rxIRTP0kM2Mm7Dc,Résidence Pierre et Vacances Andorra Sunari Peretol,42.559658,1.685498,"['lodging', 'point_of_interest', 'establishment']",4.0,"Callissa de Cal Bernat, AD100 Bordes d'Envalira, Andorra",702d89a9acd6460515c4d3c7bbff091f57048506,"Callissa de Cal Bernat, Bordes d'Envalira"
ChIJB0XUbIt9rxIRZujzZVISAG4,El Zorro,42.541595,1.7327554,"['lodging', 'point_of_interest', 'establishment']",5.0,"Andorra, El Pas de la Casa, Carrer de catalunya 13邮政编码: AD200",aab27a84195ccf6d7d339c467bb6163809cbc772,"Carrer de catalunya 13, El Pas de la Casa"
ChIJvUncCtOKpRIREmcSGG_sROw,OUTLET ROCA RIBES,42.507836,1.523156,"['home_goods_store', 'store', 'point_of_interest', 'establishment']",5.0,"Av. Meritxell, 5, AD500 Andorra la Vella, Andorra",2ba4432966b6c47014dc008eab4c23407dab8be8,"Avinguda Meritxell, 5, Andorra la Vella"
ChIJcYnhwtOKpRIR7I57teL3YX4,McDonald's,42.5078931,1.5250051,"['restaurant', 'food', 'point_of_interest', 'establishment']",4.0,"Av. Meritxell, 32, AD500 Andorra la Vella, Andorra",7307914ec89a0d9e1fa10f929cf64cef12ca95db,"Avinguda Meritxell, 32, Andorra la Vella"
ChIJf6Ie0ox9rxIR3bQV8jDz-Ak,Escola Andorrana i Francesa del Pas de la Casa,42.54470360000001,1.7340354,"['school', 'point_of_interest', 'establishment']",5.0,"AD200 El Pas de la Casa, Andorra",3b543e606682fd7b64efaf923e81d5fd59f924da,El Pas de la Casa
ChIJLcTxQyZirxIRf-qRT27FrI4,Hotel Roc del Castell,42.5676004,1.6015263,"['lodging', 'point_of_interest', 'establishment']",4.6,"Avenida Sant Joan de Caselles, 63, AD100 Canillo, Andorra",22dc71edaaea0f7b55225e0daee0b65131302572,"Avenida Sant Joan de Caselles, 63, Canillo"
ChIJVb4sWrmFpRIRLToRZJajd-E,Vall de la Llosa,42.4356538,1.701126,"['park', 'point_of_interest', 'establishment']",5.0,"Unnamed Road,, 25726 Lles de Cerdanya, Lleida, Spain",bfc97954a6feb159533cef26b01584c48ac530a5,"Unnamed Road,, Lles de Cerdanya"
ChIJ6VTjugyKpRIRXG5zN4fpCEg,BARBERIA MACIA,42.5344796,1.5797388,"['hair_care', 'health', 'point_of_interest', 'establishment']",5.0,"Carrer del Pas de la Casa, 1, AD200 Encamp, Andorra",764ea225b862b6ae45634ca13dc14c96e1cb81b7,"Carrer del Pas de la Casa, 1, Encamp"
ChIJk8RCC9qKpRIRCZCraq6Au-0,Bob Hairstore,42.5082301,1.5303401,"['store', 'point_of_interest', 'establishment']",,"Avinguda Meritxell 92-94, BOB, AD500 Andorra la Vella, Andorra",2a67a26dfce6f15773e0c7c1eea2528360ccf775,"Avinguda Meritxell 92-94, BOB, Andorra la Vella"
ChIJh5zEkQuKpRIRy-HPtyJKW3k,Farmàcia Baixench,42.53582600000001,1.582227,"['pharmacy', 'store', 'health', 'point_of_interest', 'establishment']",5.0,"Nº, Plaça del Consell, 2, AD200 Encamp, Andorra",1a0c4b751d15e829bea31bd798ee37ba7115a15b,"Nº, Plaça del Consell, 2, Encamp"
ChIJUTGiV9qKpRIRKUkTx50dGCY,Financera d'Assegurances SA,42.50874280000001,1.5324463,"['insurance_agency', 'point_of_interest', 'establishment']",3.7,"Carrer Babot Camp, 11, AD500 Andorra la Vella, Andorra",4b823f00717636e8606b1d2401005446d786fd6e,"Carrer Babot Camp, 11, Andorra la Vella"
ChIJU0PC8tyKpRIRfn3Xb7j01Ow,Cal Magi,42.50932729999999,1.53667,"['restaurant', 'food', 'point_of_interest', 'establishment']",,"s/n, Passeig de l'Arnaldeta de Caboet, AD700 Escaldes-Engordany, Andorra",f01ffe1d987b214555a4270a2dc3ff9112b353e6,"s/n, Passeig de l'Arnaldeta de Caboet, Escaldes-Engordany"
ChIJ1eZIBdGKpRIR2Z665cckpls,Escales Paris,42.508486,1.527536,"['clothing_store', 'store', 'point_of_interest', 'establishment']",5.0,"Av. Meritxell, 49, AD500 Andorra la Vella, Andorra",7f0bef930d25df77555097d4dd1c93fa32330977,"Avinguda Meritxell, 49, Andorra la Vella"
ChIJp5TCvdCKpRIRctdh9t5KQaM,MERCERIA UNI PUNT,42.5076026,1.5296822,"['store', 'point_of_interest', 'establishment']",,"Carrer Joan Maragall, 8, AD500 Andorra la Vella, Andorra",1a9801b0546b4af0fc8488537576b1e0f17c1cc8,"Carrer Joan Maragall, 8, Andorra la Vella"
ChIJBVIzVOaKpRIRZILjGRYgHZY,COMERÇ VILAGINES,42.508888,1.5429028,"['bakery', 'store', 'food', 'point_of_interest', 'establishment']",4.0,"Av. Carlemany, 27, AD700 Escaldes-Engordany, Andorra",8d22589e1b117b9f89157d8c0b6134c068536b11,"Avinguda Carlemany, 27, Escaldes-Engordany"
ChIJgwPUPx6QpRIRrotPiXjlLoU,Rocaviva,42.38076460000001,1.6602632,"['museum', 'point_of_interest', 'establishment']",5.0,"25726 Lles de Cerdanya, Lleida, Spain",27f71f67425daededc59b72a1b75995c698b904f,Lles de Cerdanya
ChIJ2UDuVbtfrxIRGVJhEqfXpU8,Bici Emoció Chalet,42.5658315,1.4920749,"['lodging', 'point_of_interest', 'establishment']",,"AD400 Puiol del Piu, Andorra",37377119acef47dc3f5ccccb792ca4dbe96e8f00,Puiol del Piu
ChIJVwBBEot9rxIRzjbPdztEej0,LIZARRAN PAS DE LA CASA,42.54136399999999,1.732677,"['restaurant', 'food', 'point_of_interest', 'establishment']",2.9,"Carrer Bearn, 6, AD200 Pas de la Casa, Andorra",a91144709a6337c0b3227c50b0b4d2708039318e,"Carrer Bearn, 6, Pas de la Casa"
ChIJTyTjd9uKpRIR7FYtZundzR8,Alain Afflelou Óptico,42.50876,1.534902,"['store', 'health', 'point_of_interest', 'establishment']",,"Avda. Carlemany, 70, C.C. Illa Carlemany, AD700 Escaldes-Engordany, Andorra",8658096bf71d5dc83725469d5b4c4d75795bdb82,"Avda. Carlemany, 70, C.C. Illa Carlemany, Escaldes-Engordany"
ChIJf5FFQCZirxIRXTBX-22GJ4o,Olympia Esports Roxy Outlet,42.5679467,1.60192,"['store', 'point_of_interest', 'establishment']",,"Av Sant Joan de Caselles, s/n Edifici Novell Esc A, AD100 Canillo, Andorra",1bc852154ae09fda0f4254f8aa3e8325fbe5f93a,"Av Sant Joan de Caselles, s/n Edifici Novell Esc A, Canillo"
ChIJux_STNeKpRIR9-IgsALNU2A,Perfumeria Júlia,42.50643770000001,1.5297563,"['clothing_store', 'store', 'point_of_interest', 'establishment']",,"Carrer Bonaventura Riberaygua, 32-34, AD500 Andorra la Vella, Andorra",b6473c7e2c4996039c0890d718339b695e0f5190,"Carrer Bonaventura Riberaygua, 32-34, Andorra la Vella"
ChIJz-7QwolhrxIRCRc7suGNJZw,Mora Banc,42.5657208,1.597758,"['atm', 'finance', 'point_of_interest', 'establishment']",1.0,"AD100 Canillo, Andorra",b4ede516a9c09477320eead8f2b92baea482f3b4,Canillo
ChIJczaTUYt9rxIRRKilXqxFEsc,Calzedonia,42.54225350000001,1.7340595,"['clothing_store', 'store', 'point_of_interest', 'establishment']",1.0,"Carrer Major, 2, AD200 Pas de la Casa, Andorra",73925941afe33f20bea2127b3491859b9746f3e8,"Carrer Major, 2, Pas de la Casa"
ChIJJYvnoTpjrxIRyBldhXQDdDE,La Devesa,42.589084,1.6661239,"['lodging', 'point_of_interest', 'establishment']",,"La devesa 1-6, Crtra general 2, AD100 Incles, Soldeu, AD100 Incles, Andorra",3eb5caedda784be868e9412f4bb56813393603d6,"La devesa 1-6, Crtra general 2, AD100 Incles, Soldeu, Incles"
ChIJi8cz0-D0pRIRl0A6z5RGqb8,Escola Especialitzada Nostra Senyora de Meritxell,42.497057,1.4994851,"['school', 'point_of_interest', 'establishment']",5.0,"Carrer dels Barrers, 10, AD500 Santa Coloma, Andorra",1a329d856e8a8f1c0ce6308cf226433386ef3bd4,"Carrer dels Barrers, 10, Santa Coloma"
ChIJOb0ZBdqKpRIREms4McbZ6qE,Estocks Marca R,42.5069303,1.5310623,"['clothing_store', 'store', 'point_of_interest', 'establishment']",,"Carrer Ciutat de Consuegra, 6, AD500 Andorra la Vella, Andorra",bce763b38405187aa9bc00e93557017d45743931,"Carrer Ciutat de Consuegra, 6, Andorra la Vella"
ChIJM2EadBLzpRIRFmFWnC5qn-c,Luc Turell,42.43972589999999,1.4920775,"['health', 'point_of_interest', 'establishment']",,"Carrer de la Geneta, 22, AD600 Juberri, Andorra",f576fe07c0620bd818aaba2406ec4b3765cc1aae,"Carrer de la Geneta, 22, Juberri"
ChIJ-UQp_t30pRIRAQEg28g1xzU,PINTUREKA,42.497551,1.502874,"['home_goods_store', 'store', 'point_of_interest', 'establishment']",5.0,"Av. d'Enclar, 28, AD500 Santa Coloma, Andorra",00f138c568ce04dc34223f6b6104bab1b183be26,"Avinguda d'Enclar, 28, Santa Coloma"
ChIJtfHtIyFirxIRNbE7AlN7K9g,Andorra Mountain Apartment,42.563361,1.6011841,"['lodging', 'point_of_interest', 'establishment']",4.5,"Carretera del Forn Urbanizacion ribagrossa, AD100 Canillo, Andorra",5b78229d150413b8e96cb0d6d43948b54ce18771,"Carretera del Forn Urbanizacion ribagrossa, Canillo"
ChIJUQ8y6HGKpRIRTC5oSEt80pc,BAR LA PARADA,42.53114600000001,1.572979,"['bar', 'point_of_interest', 'establishment']",5.0,"Av. de Joan Martí, 105, AD200 Encamp, Andorra",a2b8395068abaf5bee86aa3b69d78ba26f19940f,"Avinguda de Joan Martí, 105, Encamp"
ChIJcULugNCKpRIRnNHMYTsEipw,Salabert Ganivets,42.5087544,1.5303652,"['furniture_store', 'home_goods_store', 'store', 'point_of_interest', 'establishment']",4.0,"Av. Consell d'Europa, 12, AD500 Andorra la Vella, Andorra",439faba002a7bb51220e6ab4191e7d3291b91772,"Avinguda Consell d'Europa, 12, Andorra la Vella"
ChIJB6NpXvlfrxIRykYXJPIyLHg,Beta Assegurances,42.546038,1.513952,"['insurance_agency', 'point_of_interest', 'establishment']",5.0,"Av. de Sant Antoni, 10, AD400 La Massana, Andorra",44763899876c33f231dbcc96dcc932483c0f2a7f,"Avinguda de Sant Antoni, 10, La Massana"
ChIJey2amiz1pRIRwmvOoxAU0qg,Cooperativa Interurbana Andorrana,42.5071811,1.5191437,"['travel_agency', 'point_of_interest', 'establishment']",2.2,"Av. Príncep Benlloch, 26, AD500 Andorra la Vella, Andorra",ac428dae5e1d54ae17b3832066366a5732b79d12,"Avinguda Príncep Benlloch, 26, Andorra la Vella"
ChIJtW2Agd2KpRIRN1pD5uxwV_M,Hotel-Aparthotel SERHS Cosmos Andorra***,42.5098801,1.5408504,"['lodging', 'point_of_interest', 'establishment']",3.5,"Av. de les Escoles, 10, AD700 Escaldes-Engordany, Andorra",a96f5f09a4934fda33be967c1c00973ba9440aac,"Avinguda de les Escoles, 10, Escaldes-Engordany"
ChIJXfAUIIP0pRIRCEqLsd6EJjI,Andorra Aviation Academy,42.465318,1.490682,"['university', 'school', 'point_of_interest', 'establishment']",5.0,"Plaça de la Germandat, 7, AD600 Sant Julià de Lòria, Andorra",2a229bb0d9fbc2583fd575aa9e8b0c0981a0a717,"Plaça de la Germandat, 7, Sant Julià de Lòria"
ChIJCZ1eNA-KpRIRqF8goDD5esk,Esports Everest,42.535176,1.587848,"['clothing_store', 'store', 'point_of_interest', 'establishment']",3.9,"Av. de François Mitterrand, 85, AD200 Encamp, Andorra",aa813342da590868c6201f42c4b3a1762beb0f67,"Avinguda de François Mitterrand, 85, Encamp"
ChIJOcOyaCZirxIRMId1jhG2h1U,PUB MUSICAL CÀMPING PLA,42.567412,1.602135,"['bar', 'point_of_interest', 'establishment']",4.5,"AD100 Canillo, Andorra",12847d0c3e1af3864dccb8a40572e441d6b4b460,Canillo
ChIJGzaKYtSKpRIRawPnmQAsOcg,Plaça Casadet,42.50578319999999,1.5233446,"['park', 'point_of_interest', 'establishment']",4.0,"Carrer Prada Casadet, 8, AD500 Andorra la Vella, Andorra",7af87929ff90905840b1d4740c7fc19e3a7e8074,"Carrer Prada Casadet, 8, Andorra la Vella"
ChIJTfL-f9SKpRIRzM70X9PrmG0,Mòbil Mercantil,42.5064822,1.5231166,"['store', 'point_of_interest', 'establishment']",,"Carrer Prat de la Creu, 59, AD500 Andorra la Vella, Andorra",6fb84ff8f5a7b2e5ce850774f799f3bf34b49e0a,"Carrer Prat de la Creu, 59, Andorra la Vella"
ChIJ3wDIlNdirxIROcXarFcap6k,LA PALMERA FUMADORA,42.57681600000001,1.66734,"['store', 'point_of_interest', 'establishment']",5.0,"AD100 Soldeu, Andorra",96b833ada51abe5facf41910a8a734dcac996ba0,Soldeu
ChIJsaYabNz0pRIRa3O0mJ-vGFk,Caixer/Cajero/ATM Banc Sabadell,42.4954683,1.5054743,"['atm', 'finance', 'point_of_interest', 'establishment']",,"Av. de Salou, 80, AD500 Andorra la Vella, Andorra",a665a84aeea9802fa48effb2cc6f69895395bb04,"Avinguda de Salou, 80, Andorra la Vella"
ChIJSbbe0dCKpRIR0W461ujM42w,SMC ASSESSORS,42.506871,1.528716,"['accounting', 'finance', 'point_of_interest', 'establishment']",,"C/Pere d'Urg, 10-12, Edifici Montducal, 4ª planta despatx 9, AD500 Andorra la Vella, Andorra",6e65224befb8ecb43a279fcaff907877b1bc83e9,"C/Pere d'Urg, 10-12, Edifici Montducal, 4ª planta despatx 9, Andorra la Vella"
ChIJQZpZItOKpRIRTzR0Vd4hR4Q,Aula de Teatre Comú d'Andorra la Vella,42.5085155,1.5218837,"['school', 'point_of_interest', 'establishment']",,"AD500 Andorra la Vella, Andorra",1297cf3a400d18fb506c5e16d755df8b88e08a03,Andorra la Vella
ChIJI5HVpyn1pRIRjsyu2OAXcgQ,GRANJA LA CLARIANA,42.5040686,1.5142092,"['bar', 'point_of_interest', 'establishment']",4.5,"Av. de Santa Coloma, 24, AD500 Andorra la Vella, Andorra",fd8044d9663eedd4ade9c5a37bb5240e2789f39f,"Avinguda de Santa Coloma, 24, Andorra la Vella"
ChIJgT4nW_lfrxIRPygbigASKKY,OPTICA PASTEUR 5,42.5453052,1.5152328,"['store', 'health', 'point_of_interest', 'establishment']",,"Av. de Sant Antoni, 27, AD400 La Massana, Andorra",efbf61ed152d8cae39583350f76d634403413ddd,"Avinguda de Sant Antoni, 27, La Massana"
ChIJ_e5sWtZirxIR7qx0CCy3m34,Hermitage Mountain Residences,42.5759877,1.669439,"['lodging', 'point_of_interest', 'establishment']",,"Carretera General, s/n, AD100 Soldeu, Andorra",83ff292ea4358e67eadd34f5cae04898245e835d,"Carretera General, s/n, Soldeu"
ChIJ4Z1jBtqKpRIRZeSOtmrjTX8,CENTRE ÒPTIC RAMON PORQUERES,42.506918,1.5308016,"['health', 'point_of_interest', 'establishment']",5.0,"Carrer Bonaventura Riberaygua, 19, AD500 Andorra la Vella, Andorra",217fa7aeaee8ff2cfb7651ff54db97d38a406148,"Carrer Bonaventura Riberaygua, 19, Andorra la Vella"
ChIJ3YxMeOeKpRIRrVzFGPb_E84,Accessible,42.5086157,1.5406716,"['clothing_store', 'store', 'point_of_interest', 'establishment']",,"Av. Carlemany, 51, AD700 Escaldes-Engordany, Andorra",b1f10d7c6bfbe86999a00816970e14d3c7049043,"Avinguda Carlemany, 51, Escaldes-Engordany"
ChIJ2Ylbkot9rxIRFoZ3OE0Es3E,Hotel Caribou,42.5421268,1.7309439,"['lodging', 'point_of_interest', 'establishment']",5.0,"Carrer de la Solana, 64, AD200 Pas de la Casa, Andorra",f54d467651aee9579fc9d5dc2d490f97b85537a1,"Carrer de la Solana, 64, Pas de la Casa"
ChIJ-3FFe9CKpRIRflNc_UAReKQ,TIKI SHOP,42.5092483,1.5299856,"['store', 'point_of_interest', 'establishment']",4.7,"Av. Dr. Mitjavila, 7, AD500 Andorra la Vella, Andorra",7608b21417224050fd4a4c1e9aa32b557076830d,"Avinguda Doctor Mitjavila, 7, Andorra la Vella"
ChIJiZ3_QCZirxIRM_69omHLlX4,Olympia Esports DC Quiksilver Roxy outlet,42.5679467,1.60192,"['store', 'point_of_interest', 'establishment']",3.7,"Av Sant Joan de Caselles s/n,Edifici Novell esc B, AD100 Canillo, Andorra",e1dd783e9d1696323522c122eb23f3ae8f309f43,"Av Sant Joan de Caselles s/n,Edifici Novell esc B, Canillo"
ChIJ1TsJFpGPpRIRUZrZKrampJ0,Pas de la Pera,42.40794,1.6627,"['lodging', 'restaurant', 'food', 'point_of_interest', 'establishment']",4.2,"Pça del carrer Clos 1, 25726 Aransa, Lérida, Spain",868f69712beb52e749c4acdbb4789e832930c980,"Pça del carrer Clos 1, Aransa"
ChIJ06L5t9yDpRIRbkLPxw05f8Q,Ajuntament De Meranges,42.44951,1.77704,"['city_hall', 'local_government_office', 'point_of_interest', 'establishment']",,"Camino Girul, 0 S N, 17539 Meranges, Girona, Spain",b567089bc4ee76aff14b74e49828cd9c26f7bb94,"Camino Girul, 0 S N, Meranges"
ChIJ13SgkNnzpRIRDJFo8_GkTtc,Argolell,42.4358813,1.4472447,"['locality', 'political']",,"25799 Argolell, Lleida, Spain",d001daec065f79d93ae394951381a8b62288de15,Argolell
ChIJ62Yo4ueKpRIR-7RLqg8ScbQ,Residencia Astoria,42.4923325,1.4958086,"['lodging', 'point_of_interest', 'establishment']",,"Carrer de les Escoles, 16, 700 Andorra la Vella, Andorra",e6c732406c40568693185422466cf763f5270546,"Carrer de les Escoles, 16, Andorra la Vella"
ChIJ_UNlrP1_rxIRxKQ7pRJIe0Y,Gare de Porte-Puymorens,42.53893980000001,1.8249734,"['train_station', 'transit_station', 'point_of_interest', 'establishment']",,"66760 Porta, France",cdd2060e64eab6008d66839de0c6936eb669d457,France
ChIJ-SMnfNyKpRIRYH4Wy3MiPg4,OUTLET SPORTECH,42.50899079999999,1.5345198,"['store', 'point_of_interest', 'establishment']",5.0,"Av. Carlemany, 70, AD700 Escaldes-Engordany, Andorra",f84b36e51c1efb19e09c054a0fb6d60b90827a7c,"Avinguda Carlemany, 70, Escaldes-Engordany"
ChIJIQ11cd70pRIRNf3dsRnHqJQ,AC AUTO SERVEI,42.4974506,1.5030812,"['car_repair', 'store', 'point_of_interest', 'establishment']",,"Av. d'Enclar, 25, AD500 Santa Coloma, Andorra",4c69e7f516feee7db10afc9fcfeffab8fdb11daa,"Avinguda d'Enclar, 25, Santa Coloma"
ChIJaf4BvCz1pRIRt8NF7UTcqpk,Farmàcia del Currubell,42.50749469999999,1.5199516,"['pharmacy', 'store', 'health', 'point_of_interest', 'establishment']",,"Av. Príncep Benlloch, 16, AD500 Andorra la Vella, Andorra",d24b29a58ab415070a4a66b574f9c8c64912b077,"Avinguda Príncep Benlloch, 16, Andorra la Vella"
ChIJXYLJ_tCKpRIRpkzziHPKVrU,K-tuin Tiendas Apple,42.5088203,1.5286298,"['electronics_store', 'store', 'point_of_interest', 'establishment']",4.3,"Av. Meritxell, 76, AD500 Andorra la Vella, Andorra",05c4d5ad29ac7df2b8466423908c91f137035221,"Avinguda Meritxell, 76, Andorra la Vella"
ChIJAQAALGDzpRIRvN9xn71pNVM,Universe Ticket,42.5081643,1.5290245,"['travel_agency', 'point_of_interest', 'establishment']",,"Carrer Bonaventura Armengol, 10, AD500 Andorra la Vella, Andorra",80e08dcdf89caf6dbe2e0b22ff8dab92fd0bb6d6,"Carrer Bonaventura Armengol, 10, Andorra la Vella"
ChIJC1h9ENqKpRIRHTtIWBJJZXc,El Tall a taula,42.50708470000001,1.5313031,"['restaurant', 'food', 'point_of_interest', 'establishment']",4.2,"Carrer Bonaventura Riberaygua, 13, AD500 Andorra la Vella, Andorra",926a07b428aa9480cccd773db9d4574bb738b4aa,"Carrer Bonaventura Riberaygua, 13, Andorra la Vella"
ChIJnyV6StOKpRIRVZput0Rm7s0,Promocions Norma,42.5077854,1.5209964,"['real_estate_agency', 'point_of_interest', 'establishment']",5.0,"Carrer Dr. Nequi, 5, AD500 Andorra la Vella, Andorra",3efc7e5239f116dbc321dc7b281169797f8ac76c,"Carrer Doctor Nequi, 5, Andorra la Vella"
ChIJiY9pWaNfrxIRBaCkjwbruFE,SHUSSKI ARINSAL SANT GOTHARD,42.56553700000001,1.490976,"['store', 'point_of_interest', 'establishment']",5.0,"Carretera General d'Arinsal. Hotel Sant Gothard. Arinsal., AD400 Arinsal, Andorra",dce6360ac442e1346ef573f7e876c17ab7ccbeec,"Carretera General d'Arinsal. Hotel Sant Gothard. Arinsal., Arinsal"
ChIJL-QAUKhfrxIRzSLDoTKpnik,BAR RESTAURANT EL MOLI DE LA PLACA,42.572638,1.483975,"['restaurant', 'food', 'point_of_interest', 'establishment']",4.5,"AD400 Arinsal, Andorra",e1f79d11953223b22ed45b83c00de509edcad7ab,Arinsal
ChIJYQ08UNOKpRIRabOJ47x_akI,La Birreria De Andorra,42.5071278,1.5213754,"['bar', 'point_of_interest', 'establishment']",5.0,"Carrer de la Vall, 3, AD500 Andorra la Vella, Andorra",72dac22bde5aeb06b0e6ed9b711e6116f5a53e88,"Carrer de la Vall, 3, Andorra la Vella"
ChIJjSNJwNdirxIRcX5dNp7E_pA,casa nova apartments,42.577049,1.667496,"['lodging', 'point_of_interest', 'establishment']",4.0,"carrer antic, soldeu,, AD100 Canillo, Andorra",ba2500a78cad9045b511c4a14fb51d136077ef3c,"carrer antic, soldeu,, Canillo"
ChIJW_Lznox9rxIRkn4TLMM6y8g,Hotel Parma Andorra,42.5434362,1.7326031,"['lodging', 'point_of_interest', 'establishment']",3.9,"Plaça Coprínceps, 26-28, AD200 Pas de la Casa, Andorra",de49ca9d71fa5b5c8c813698c855a1691054e96d,"Plaça Coprínceps, 26-28, Pas de la Casa"
ChIJmwUKvolhrxIRF9coja-OFC4,Farmàcia Abarset,42.5656647,1.5968819,"['pharmacy', 'store', 'health', 'point_of_interest', 'establishment']",4.0,"AD100 Canillo, Andorra",b34acd9d050c7c38bcd52618cbbaad12fd1a5947,Canillo
ChIJi9aunNCKpRIRSy4GifU45cc,CASHMERE SHOP,42.50827169999999,1.5301492,"['clothing_store', 'store', 'point_of_interest', 'establishment']",5.0,"Av. Meritxell, 90, AD500 Andorra la Vella, Andorra",93edc07653585ddbf8d21038147082eb0a928f58,"Avinguda Meritxell, 90, Andorra la Vella"
ChIJI7J5sdn0pRIRDqOpxllIx5A,Taller Dinamic,42.49902640000001,1.5095273,"['car_repair', 'point_of_interest', 'establishment']",,"Carrer Prada de Moles, 6, AD500 Andorra la Vella, Andorra",dc21c0ebd8d4c22a37bec33ce4f5721956a7c87f,"Carrer Prada de Moles, 6, Andorra la Vella"
ChIJ3an2KtqKpRIRmxuKv2NpQt0,Aparcament Comunal Fener II,42.5065114,1.5328339,"['parking', 'point_of_interest', 'establishment']",,"AD500 Andorra la Vella, Andorra",7e2631dc1ade3422ca5ae09ac7acb4e7aaff0fab,
ChIJd9TNh3GKpRIRGnBsSTLP2wk,SIR Andorra,42.5322681,1.574018,"['real_estate_agency', 'point_of_interest', 'establishment']",,"Av. de Joan Martí, 102, AD200 Encamp, Andorra",0a239c8ff6b5232ba72663a213a6064b748592bd,"Avinguda de Joan Martí, 102, Encamp"
ChIJ5S2IC4t9rxIRE_KWdVrJC8E,BURGER KING,42.5413764,1.7322478,"['restaurant', 'food', 'point_of_interest', 'establishment']",2.5,"Carrer Bearn, 12, AD200 Pas de la Casa, Andorra",bc3cce9afe83a389e07caaa58830d9a23350a6da,"Carrer Bearn, 12, Pas de la Casa"
ChIJVQ7RL3KKpRIRnNbCt11s4rw,Neu i Mar,42.50744419999999,1.5290085,"['real_estate_agency', 'point_of_interest', 'establishment']",5.0,"Av. Carlemany, 35, AD700 Escaldes-Engordany, Andorra",550a4add71f1ebe98f2107a33fb580bff5c8fbd9,"Avinguda Carlemany, 35, Escaldes-Engordany"
ChIJ_38bTZD0pRIRPly-bPGWHVc,Sant Martí de Nagol,42.47492990000001,1.493515,"['church', 'place_of_worship', 'point_of_interest', 'establishment']",4.8,"AD600 Sant Julià de Lòria, Andorra",5b19f7fffd492f93c54214416d09838f6a6e5748,Sant Julià de Lòria
ChIJyfxSXNj0pRIRKDLEUTZdP6o,SEUWAGEN,42.505145,1.527644,"['car_dealer', 'car_rental', 'car_repair', 'store', 'point_of_interest', 'establishment']",4.0,"Av. de Tarragona, 51, AD500 Andorra la Vella, Andorra",1cd7c2b256b911ea104a8128b15cff973b1cb35a,"Avinguda de Tarragona, 51, Andorra la Vella"
ChIJz3rAUNGKpRIRtrZ0SudJ1iY,Kökosnøt,42.5070396,1.526075,"['restaurant', 'food', 'point_of_interest', 'establishment']",5.0,"Carrer Prat de la Creu, 29, AD500 Andorra la Vella, Andorra",04423cb3cf41686fe617029e0b241de58a159fbe,"Carrer Prat de la Creu, 29, Andorra la Vella"
ChIJ2Ub4cJtfrxIRMHKZkXCUAAo,Xixerella,42.553148,1.486532,"['locality', 'political']",,"AD400 Xixerella, Andorra",0a6724d514f4259d07d9b397e6a59789eda7e5ee,Xixerella
ChIJW91Abyn1pRIROpvU_ABHxQI,STELA ANDORRANA HONDA,42.5050519,1.5153478,"['car_dealer', 'store', 'point_of_interest', 'establishment']",5.0,"Av. Príncep Benlloch, 91, AD500 Andorra la Vella, Andorra",e74af150f354238f63cdb4e56382f4b74c324421,"Avinguda Príncep Benlloch, 91, Andorra la Vella"
ChIJORxm-NCKpRIRedFXYYYLz4U,Residencia Paris,42.50893749999999,1.5285317,"['restaurant', 'food', 'point_of_interest', 'establishment']",,"Av. Meritxell, 65, AD500 Andorra la Vella, Andorra",87964073f56104d2d299ebc75d0e8f55f0fa2a94,"Avinguda Meritxell, 65, Andorra la Vella"
ChIJr_suN9OKpRIR4WeqhdPQFFo,TU I JO XICS,42.508074,1.521343,"['clothing_store', 'store', 'point_of_interest', 'establishment']",,"Carrer Dr. Nequi, 2, AD500 Andorra la Vella, Andorra",30f4a399da5da8897f4c330e3ba485230db8abfb,"Carrer Doctor Nequi, 2, Andorra la Vella"
ChIJRXCuRqyKpRIRSKh4sj5AZIE,Aparcament Comunal,42.534403,1.5242222,"['parking', 'point_of_interest', 'establishment']",,"AD400 La Massana, Andorra",76576d02beb6ab3621fd6112e0c594c4035d533c,La Massana
ChIJw36gn92KpRIRCVys-xcb6VU,Shana,42.508632,1.539106,"['clothing_store', 'store', 'point_of_interest', 'establishment']",3.0,"Av. Carlemany, 67, AD700 Escaldes-Engordany, Andorra",8976d17c76b0899d21e9cd4b3111126785bf4d55,"Avinguda Carlemany, 67, Escaldes-Engordany"
ChIJUSaa6guKpRIRUkbyVkWCl_8,RESTAURANT CALIU D'EN JOSEP,42.53635999999999,1.582731,"['food', 'point_of_interest', 'establishment']",4.5,"Av. de François Mitterrand, 4, AD200 Encamp, Andorra",92541b7f0c5b9a8ea52e9684ccb30cd1b4cefe4a,"Avinguda de François Mitterrand, 4, Encamp"
ChIJtaM8b9qKpRIRtCcD3egtVNM,Starbucks Andorra,42.5081634,1.5313962,"['cafe', 'food', 'point_of_interest', 'establishment']",4.0,"Av. Meritxell, AD500 Andorra la Vella, Andorra",ee41844d1137ae4531b87407ceb73401a7416425,"Avinguda Meritxell, Andorra la Vella"
ChIJNxw7kCZirxIRrdSiXXhUaiM,Les Fonts,42.566093,1.6025364,"['lodging', 'point_of_interest', 'establishment']",3.5,"Urbanitzacio Els Refugis, AD100 Canillo, Andorra",6622fd3443d97819cd816b235bee3e730a0eb3d6,"Urbanitzacio Els Refugis, Canillo"
ChIJ5-HMEJlgrxIRaBxbcmLjbik,Braseria La Neu,42.59866239999999,1.5291971,"['restaurant', 'food', 'point_of_interest', 'establishment']",4.3,"Avenida de l'Angonella s/n, AD300 Llorts, Andorra",0ebec9b05eb9ea7e035821c13e6385790c15a811,"Avenida de l'Angonella s/n, Llorts"
ChIJXVIuy55grxIRzupiZxFdJjI,Apartaments la Neu,42.600068,1.532545,"['bar', 'lodging', 'restaurant', 'food', 'point_of_interest', 'establishment']",4.7,"Avenida de l' Angonella s/n, AD300 Llorts, Andorra",476f9117298b9b46e3134485c31682fdb280d0e3,"Avenida de l' Angonella s/n, Llorts"
ChIJB7MMatOKpRIRFsAn7_s0180,FORTIOR,42.50764179999999,1.5220687,"['jewelry_store', 'store', 'point_of_interest', 'establishment']",5.0,"Plaça Príncep Benlloch, AD500 Andorra la Vella, Andorra",134770de3b290f45c31969e45462185689d65811,"Plaça Príncep Benlloch, Andorra la Vella"
ChIJd93UOYt9rxIRuASVYXc3t2Q,Pic Negre 16 - Pas de la casa,42.54165649999999,1.7338141,"['bicycle_store', 'store', 'point_of_interest', 'establishment']",2.0,"13 Av. d'Encamp, AD200 Pas de la Casa, Andorra",df696d210f48adf3542f11eaef9d038a36d81f95,"Avinguda d'Encamp, 13, Pas de la Casa"
ChIJE3g_LnKKpRIRXKCY_OpTKjg,HOTEL ALFA,42.53233900000001,1.574731,"['lodging', 'point_of_interest', 'establishment']",2.3,"Av. de Joan Martí, 87, AD200 Encamp, Andorra",86feefd82bd3adcc3d71c60ad808535f3a951151,"Avinguda de Joan Martí, 87, Encamp"
ChIJMdIueYx9rxIRphPMh870fj4,SUPERMERCAT PARADÍS,42.5429988,1.7316528,"['supermarket', 'grocery_or_supermarket', 'store', 'food', 'point_of_interest', 'establishment']",5.0,"Carrer Sant Jordi, 31, AD200 Pas de la Casa, Andorra",2fef14a58e29b18a510ca6ad9591643f38e2b511,"Carrer Sant Jordi, 31, Pas de la Casa"
ChIJO3yTTo3zpRIRQHCZkXCUAAo,Fontaneda,42.45413430000001,1.4633708,"['locality', 'political']",,"AD600 Fontaneda, Andorra",1fe143b8ff280d09d908e558e2ebf67ec7d9060b,Fontaneda
ChIJJRqbyiz1pRIRn69UNKEmayY,CO2 MODA I COMPLEMENTS,42.50782899999999,1.520755,"['clothing_store', 'store', 'point_of_interest', 'establishment']",5.0,"Carrer Dr. Nequi, 12, AD500 Andorra la Vella, Andorra",c64414f0f13ebd540e4e54cbbda9344fc9fdff7a,"Carrer Doctor Nequi, 12, Andorra la Vella"
ChIJJ8sqxiVjrxIRo2U6lNn1iAc,Apartamento Envalira,42.584089,1.664536,"['lodging', 'point_of_interest', 'establishment']",,"Ctra. Vall d'Incles s/n, AD100 Incles, Andorra",da89aa12fbfadc0bb1b959865df60e1c32ec1d33,"Ctra. Vall d'Incles s/n, Incles"
ChIJ60G5WNyKpRIRZWM3_2ULfFs,The New 1978,42.50877099999999,1.536971,"['cafe', 'store', 'restaurant', 'food', 'point_of_interest', 'establishment']",3.8,"Av. Carlemany, 52, AD700 Escaldes-Engordany, Andorra",1ca10f13bd719775797899de55faef49794338d9,"Avinguda Carlemany, 52, Escaldes-Engordany"
ChIJf7ZiVZKHpRIR9DmJhmj0C28,Restaurant El Piolet,42.5257717,1.6983464,"['restaurant', 'food', 'point_of_interest', 'establishment']",4.0,"A peu de pista de Montmalús, Grandvalira - Sector Grau-Roig, AD200 Grau Roig, Andorra",c3559d2e50958a579a61a36dc87c19efa3ce635c,"A peu de pista de Montmalús, Grandvalira - Sector Grau-Roig, Grau Roig"
ChIJO5SLdQyKpRIRjvumt9FNW7M,"Casa Cristo, museu etnogràfic",42.5351509,1.5824273,"['museum', 'point_of_interest', 'establishment']",4.8,"Carrer dels Cavallers, 2, AD200 Encamp, Andorra",eeb4905589a531e44b057e3eca44a0b17c5b44c9,"Carrer dels Cavallers, 2, Encamp"
ChIJCY2fN_FfrxIRpNkHxCkepq4,Escàs,42.5464547,1.5064917,"['locality', 'political']",,"AD400 Escàs, Andorra",9e3e0a29b4061093b22345018b36156196f77a79,Escàs
ChIJ7wvczdCKpRIRxXMmIw5VTKw,Mobles Diana,42.5067525,1.5288241,"['store', 'point_of_interest', 'establishment']",3.0,"la, Carrer Pere d'Urg, 10, AD500 Andorra la Vella, Andorra",5ce7e6e486300323fda04db447a5d59a12522da9,"la, Carrer Pere d'Urg, 10, Andorra la Vella"
ChIJ90HbbnxfrxIRb51AMzDi4U8,Bar-Restaurant Bonet,42.5455293,1.4756821,"['restaurant', 'food', 'point_of_interest', 'establishment']",4.1,"Crta general de Av. Fontanella s/n, AD400 Pal, Andorra",37675e6b1f3a5b4e6b98e7107f71786a6bfbbb38,"Crta general de Av. Fontanella s/n, Pal"
ChIJ8x2MnRt_rxIR5IeZqlApKtY,Andorre-L'Hospitalet,42.5884492,1.7986177,"['train_station', 'transit_station', 'point_of_interest', 'establishment']",3.7,"Place de la gare, 09390 Andorre l'Hospitalet, France",33834c7ddb54ef1402b58ca7c38cec621c85e400,"Place de la gare, Andorre l'Hospitalet"
ChIJPeiUHtOKpRIRdH2YFzq1VQI,Insitu cocktail Bar,42.50881160000001,1.5218682,"['bar', 'point_of_interest', 'establishment']",4.0,"Carrer la Llacuna, 12, AD500 Andorra la Vella, Andorra",624bf83e86030c38ba2cfc7d032adea83d9b8d65,"Carrer la Llacuna, 12, Andorra la Vella"
ChIJxWwJ2RFgrxIRhZmST5XbTV8,Escola de Formació de Professions Esportives i de Muntanya (EFPEM),42.553806,1.53075,"['school', 'point_of_interest', 'establishment']",,"C/ Narciso Yepes s/n Centre de Tecnificació, AD300 Ordino, Andorra",8999fd2bab18707e5589d674802f4888fad6635c,"C/ Narciso Yepes s/n Centre de Tecnificació, Ordino"
ChIJ25CBBdGKpRIR0Z-eV6s8994,Escales,42.5084856,1.5275355,"['clothing_store', 'store', 'point_of_interest', 'establishment']",5.0,"Av. Meritxell, 49, AD500 Andorra la Vella, Andorra",a0a7a44e62df693cc4bd66e46881ec293c1064e5,"Avinguda Meritxell, 49, Andorra la Vella"
ChIJ-ZlvY9yKpRIReZPM6H-raEs,Galeno Grup,42.5085125,1.5349637,"['pharmacy', 'store', 'health', 'point_of_interest', 'establishment']",3.3,"Av. Meritxell, 91, AD500 Andorra la Vella, Andorra",44faa44b205cafe67f4a091bcb12781f9cf1b56c,"Avinguda Meritxell, 91, Andorra la Vella"
ChIJ23the71grxIRJ44-fZmOGJY,Mina de Llorts,42.599813,1.5327779,"['parking', 'point_of_interest', 'establishment']",4.0,"AD300 Ordino, Andorra",c79b04e60844254b56c002c9e44b7a39fcffe1de,Ordino
ChIJL7UjgNSKpRIRtxNmDoz7emQ,Massoni Ski,42.506519,1.523198,"['travel_agency', 'point_of_interest', 'establishment']",5.0,"Prat de la Creu 59, Escala A, AD500 Andorra la Vella, Andorra",cafbb1c135fae44c50cbe366a1c328a9eb3a5a04,"Prat de la Creu 59, Escala A, Andorra la Vella"
ChIJ8UsQY9ZirxIRVSpHCzYpu4Y,Xalet Montana,42.5770292,1.6665979,"['lodging', 'point_of_interest', 'establishment']",4.2,"Carretera General, s/n, AD 100 Soldeu, Andorra",cf26d1f2b44a72465048a9f60dceaa4dc91261c0,"Carretera General, s/n, Soldeu"
ChIJO1eAQn3zpRIRWTbmAUO26eg,Oficina de Turisme de Sant Julià de Lòria,42.4620399,1.4906224,"['travel_agency', 'point_of_interest', 'establishment']",5.0,"Av. Francesc Cairat, 2, AD600 Sant Julià de Lòria, Andorra",19122dc89373d0efe1fa705d6a3bcad1c0771196,"Avinguda Francesc Cairat, 2, Sant Julià de Lòria"
ChIJIXjk9gBgrxIRrSZHM1e8xFs,Sant Ermengol de l'Aldosa,42.5435054,1.5225078,"['church', 'place_of_worship', 'point_of_interest', 'establishment']",5.0,"AD400 La Massana, Andorra",d81f73d7301fcb1cee4d06ea6a865c3c4e60c3db,La Massana
ChIJ_z2F2S9irxIREvCUfor0y9s,Sant Joan de Caselles Church,42.5708316,1.6077753,"['church', 'place_of_worship', 'point_of_interest', 'establishment']",4.5,"AD100 Canillo, Andorra",54d9066d27800e82707d5d27e53be26f173ca40a,Canillo
ChIJb67rWgdfrxIRmop8qtBeoJQ,Andbank,42.57502599999999,1.481636,"['atm', 'finance', 'point_of_interest', 'establishment']",,"Carretera d'Arinsal, Casa Joan de la font, AD400 Arinsal, Andorra",a2c8048b49f6eab82f664bb0b0ea5398dae45256,"Carretera d'Arinsal, Casa Joan de la font, Arinsal"
ChIJMb77kc6DpRIRykdQLTmddpo,Hotel Rural Can Borrell Restaurant,42.445499,1.787132,"['lodging', 'restaurant', 'food', 'point_of_interest', 'establishment']",4.0,"carrer retorn, 3, 17539 Meranges, Girona, Spain",11dfdea85733f926fe718b0e82fb809722b91eed,"carrer retorn, 3, Meranges"
ChIJK3Y-FSj1pRIR64LlCIdKH6A,Tallers 3000,42.50293780000001,1.5122962,"['car_repair', 'point_of_interest', 'establishment']",,"Carrer Roureda de Sansa, 38, AD500 Andorra la Vella, Andorra",b3a8c73605e9763e4bda75696743de220538e356,"Carrer Roureda de Sansa, 38, Andorra la Vella"
ChIJK3JGotOKpRIRWvBNamPrcLQ,Boggi Milano,42.5078726,1.5236786,"['clothing_store', 'store', 'point_of_interest', 'establishment']",5.0,"Av.Meritxell, 11, c/o Pyrénées, AD500 Andorra la Vella, Andorra",5cd9a3cb6d88401ba7cddf41527c6bb36d936ff0,"Av.Meritxell, 11, c/o Pyrénées, Andorra la Vella"
ChIJD4N-Wu_0pRIR2fvHP1N0bvw,9 Grup Consultors,42.491732,1.496039,"['accounting', 'finance', 'point_of_interest', 'establishment']",,"Av. d'Enclar, 122, AD500 Santa Coloma, Andorra",595a491d6878098bc7e440bacb3cd91b5c7eeac3,"Avinguda d'Enclar, 122, Santa Coloma"
ChIJ4VlQodSKpRIRGuyiom4_wQk,El Meson De Los Tres Magos,42.506285,1.521801,"['restaurant', 'food', 'point_of_interest', 'establishment']",5.0,"AD500 Andorra la Vella, Andorra",ba3ac51a586cbb43cad07292428a3842c1d55e51,Andorra la Vella
ChIJL0pzvNuKpRIRZprGF2LF1rw,Engel & Völkers Andorra,42.508019,1.5338134,"['real_estate_agency', 'point_of_interest', 'establishment']",5.0,"Carrer de na Maria Pla, 2-6, AD500 Andorra la Vella, Andorra",2c009f85215aa0c0994811a35907492ee3b354e5,"Carrer de na Maria Pla, 2-6, Andorra la Vella"
ChIJTZXBevlfrxIRXKiQY50EMx0,Restaurant la borda xica,42.5450579,1.5133921,"['restaurant', 'food', 'point_of_interest', 'establishment']",4.7,"carrer major s/n, AD400 La Massana, Andorra",d010fd3843dcba78229af6b67bed76edd0a55c64,"carrer major s/n, La Massana"
ChIJ85z6lcWKpRIRf65Z-vgewtk,Carisma amb Agentas,42.5147455,1.5317259,"['store', 'point_of_interest', 'establishment']",,"Av. Fiter i Rossell, 67, AD700 Escaldes-Engordany, Andorra",46fb071ed07e6532a6f341396705f664c4e7c55e,"Avinguda Fiter i Rossell, 67, Escaldes-Engordany"
ChIJke--RA5grxIRzZqI9GpPo3A,FLECA FONT,42.55561110000001,1.5322594,"['post_office', 'finance', 'point_of_interest', 'establishment']",2.1,"Av casamanya, edifici casa font planta baixa, AD300 Ordino, Andorra",0ac67d1e232e779d1d789ff60b9f8268d1e6bee5,"Av casamanya, edifici casa font planta baixa, Ordino"
ChIJ60R-asOKpRIRcSNjeeAry9Y,SOLIBERTEC LED,42.51251200000001,1.536442,"['home_goods_store', 'store', 'point_of_interest', 'establishment']",5.0,"Carrer Josep Viladomat Nº 30 Local 2, AD700 Escaldes-Engordany, Andorra",e7cd4f31cb33807186e30bbe9646938862996799,"Carrer Josep Viladomat Nº 30 Local 2, Escaldes-Engordany"
ChIJeQSpmLGapRIRVdhy1uyJ1Jk,Travesseres,42.375465,1.6877625,"['locality', 'political']",,"25726 Travesseres, Lleida, Spain",8911a5807bb60fb51cd4803a98ec1020e52b13b8,Travesseres
ChIJhXhIQiv1pRIR5PP_KZFq3aI,Consolat Honorari de Suïssa,42.50585969999999,1.5198412,"['embassy', 'point_of_interest', 'establishment']",,"AD500 Andorra la Vella, Andorra",d0bb2b5a014bc70ba0963ac9de2a2408ee1c4f2d,Andorra la Vella
ChIJl8uM0pz0pRIRVB8wJDrLIz4,Centre Esportiu de Sant Julià de Lòria,42.4656612,1.49216,"['gym', 'health', 'point_of_interest', 'establishment']",4.1,"Plaça de Calonge, AD600 Sant Julià de Lòria, Andorra",3c881b3225a90fcd0d477503224d4054e732a73c,"Plaça de Calonge, Sant Julià de Lòria"
ChIJ-7HhUIt9rxIReTcPDoLgEbc,Farmàcia del Pas,42.54240579999999,1.7339325,"['pharmacy', 'store', 'health', 'point_of_interest', 'establishment']",5.0,"Carrer Major, 1, AD200 Pas de la Casa, Andorra",a0f9a7dfae766593b4dc07e71cabb9f249d444c2,"Carrer Major, 1, Pas de la Casa"
ChIJl93jQOb0pRIRF8Gjea8lrYE,CIMEX Auto,42.493773,1.49825,"['store', 'point_of_interest', 'establishment']",5.0,"Av. d'Enclar, 98, AD500 Santa Coloma, Andorra",9ef43efb5c54d0df002df157541ddc7409978511,"Avinguda d'Enclar, 98, Santa Coloma"
ChIJN86Q0VJirxIRvRPQBQUmSAc,ESPORTS CUBIL,42.57826,1.629434,"['store', 'point_of_interest', 'establishment']",5.0,"AD100 Canillo, Andorra",fcfa84133590ec158db4f9ebdd5c5e885a9488e6,Canillo
ChIJJS8cl9qKpRIR3qdM_NX5Qe8,fluid energètic,42.5099058,1.5312918,"['electrician', 'point_of_interest', 'establishment']",,"Av. Dr. Mitjavila, 23, AD500 Andorra la Vella, Andorra",0c337083ac78bc41cdf5744126ef31dc6f0098c4,"Avinguda Doctor Mitjavila, 23, Andorra la Vella"
ChIJA0Qh1-D0pRIR6y5lnp8IEDk,IMPORT ESPUGA SL,42.4970852,1.498122,"['food', 'point_of_interest', 'establishment']",,"Carrer Roureda Tapada, 17-7, AD500 Santa Coloma, Andorra",a125cd28744c74e8987f6fb53ecc74ac8edd50bd,"Carrer Roureda Tapada, 17-7, Santa Coloma"
ChIJHc9HwtOKpRIRVsEjMYXq8Jk,Peritaxa,42.5078594,1.5248796,"['finance', 'point_of_interest', 'establishment']",,"Av. Meritxell, 30, AD500 Andorra la Vella, Andorra",2353bd342517eebf6f557dadbc01a5207ad1b37d,"Avinguda Meritxell, 30, Andorra la Vella"
ChIJU0q_2NqKpRIRPUV8Se9RK_c,NOVA GESTIÓ CAPEC Immobiliària,42.5103976,1.5327296,"['real_estate_agency', 'point_of_interest', 'establishment']",5.0,"Av. Dr. Mitjavila, 41-43, AD500 Andorra la Vella, Andorra",720dfbb51dff73028f6d979e156267e3cd9cdf72,"Avinguda Doctor Mitjavila, 41-43, Andorra la Vella"
ChIJU7pscd2KpRIRt5hRFMm3oEA,Hotel Roc de Caldes,42.51064399999999,1.547096,"['lodging', 'point_of_interest', 'establishment']",4.4,"AD700 Les Escaldes, Andorra",86cea038e7ab94a9e69039b57e2afa653b528ffa,Les Escaldes
ChIJw_C3pt2KpRIRLKjfZdx7IFg,Ortodoncia,42.5085574,1.5386827,"['doctor', 'health', 'point_of_interest', 'establishment']",,"Carrer Pare Enric Graner, 2, AD700 Escaldes-Engordany, Andorra",6efa6289b2b02324b722e22d0025c90c29355c07,"Carrer Pare Enric Graner, 2, Escaldes-Engordany"
ChIJn5N5nCz1pRIRIN8Et6amkos,FILATELIA ANDORRANA,42.5068448,1.5192549,"['store', 'point_of_interest', 'establishment']",4.0,"Carrer Antic Carrer Major, 23, AD500 Andorra la Vella, Andorra",848982ceb3671fcd00b2a5739da4e037b6751c02,"Carrer Antic Carrer Major, 23, Andorra la Vella"
ChIJCZamVQiKpRIRA5fFhIhbEZ4,LAMPISTERIA FONTANEDA,42.537667,1.586439,"['store', 'point_of_interest', 'establishment']",,"Av. de Rouillac, 21, AD200 Encamp, Andorra",db841c6adfc8d6f28dda0ada35b845f36d4f3f64,"Avinguda de Rouillac, 21, Encamp"
ChIJtRS-49aKpRIRWU9IhQCBbNM,Vr Experience Zone,42.505261,1.527887,"['store', 'point_of_interest', 'establishment']",5.0,"Avinguda Tarragona 47, local 6, AD500 Andorra la Vella, Andorra",031774ce6ff14ac9e9e3e852472417894b7916fe,"Avinguda Tarragona 47, local 6, Andorra la Vella"
ChIJrSpal4x9rxIR8EdkBHUR0wU,L'Escala · Electronic Store,42.5434372,1.7329425,"['electronics_store', 'home_goods_store', 'store', 'point_of_interest', 'establishment']",3.0,"Av. del Consell General, 19, AD200 Pas de la Casa, Andorra",0f0007a766270040cf90eeb1951f6bb930f9ef69,"Avinguda del Consell General, 19, Pas de la Casa"
ChIJHZaEy_tfrxIR0W-9-Xnjem4,Hotel Màgic Ski,42.547396,1.513571,"['lodging', 'point_of_interest', 'establishment']",4.3,"Avinguda el Ravell, 1, AD400 La Massana, Andorra",f8799afd185277c76cd6f65587cda54fb7a2eaa1,"Avinguda el Ravell, 1"
ChIJXcljCtOKpRIRot5FA0yUavc,CALÇATS MITJAVILA,42.5079793,1.5233022,"['shoe_store', 'store', 'point_of_interest', 'establishment']",,"Carrer les Canals, 2, AD500 Andorra la Vella, Andorra",6c822ff76cfeede8e691bbb0bdf3b3a4d1751cfa,"Carrer les Canals, 2, Andorra la Vella"
ChIJ95KcLs2MpRIRtyRypuD404I,Naturlàndia Camp de Neu (Cota 2.000),42.43530699999999,1.520845,"['park', 'zoo', 'amusement_park', 'point_of_interest', 'establishment']",4.0,"Ctra. de la Rabassa Km. 16, AD600 Sant Julià de Lòria, Andorra",536c54251166e396e829c613829361a342d4b855,"Ctra. de la Rabassa Km. 16, Sant Julià de Lòria"
ChIJa6gYe9yKpRIRjSuGgSNVgb0,Manneken Frites,42.5083885,1.5359187,"['restaurant', 'food', 'point_of_interest', 'establishment']",4.7,"Passatge Antònia Font Caminal, 1, AD700 Escaldes-Engordany, Andorra",980069f534056fa6472b39cbd8c689ac7cb841eb,"Passatge Antònia Font Caminal, 1, Escaldes-Engordany"
ChIJp5Pli9hfrxIRyvvd3tby_vQ,LLENYES I CARBONS ROJO MAGATZEM,42.567619,1.51992,"['store', 'point_of_interest', 'establishment']",5.0,"AD300 Ansalonga, Andorra",c424eedca83d0eee9db4aea17ede31377859241b,Ansalonga
ChIJtclj3OeKpRIRrDUET0WTxWA,PERRUQUERIA BRISA,42.510754,1.541694,"['hair_care', 'point_of_interest', 'establishment']",,"Av. Copríncep de Gaulle, 19, AD700 Escaldes-Engordany, Andorra",c096f69bc57b5836f7e331556fd7d761d98e8244,"Avinguda Copríncep de Gaulle, 19, Escaldes-Engordany"
ChIJN870jydjrxIRXHhbEZV2-DY,Apartaments Bonell 2,42.5766561,1.6679152,"['lodging', 'point_of_interest', 'establishment']",,"AD100 Soldeu, Andorra",81e04589e01f0017269fef4f15ca91e3dba390e1,Soldeu
ChIJ6eKi2S9irxIRTmfb7L6njfw,Vacances en Andorre et Location d'Appartements,42.56647600000001,1.5989453,"['lodging', 'point_of_interest', 'establishment']",,"Av. Sant Joan de Caselles, AD100 Canillo, Andorra",2c4967b32004003f1cbb0bb2434940cd1afce40a,"Avinguda Sant Joan de Caselles, Canillo"
ChIJGQhcySz1pRIR6B_dKa_FBMc,Mandala,42.5080541,1.5205383,"['restaurant', 'food', 'point_of_interest', 'establishment']",5.0,"Carrer de l'Alzinaret, 17, AD500 Andorra la Vella, Andorra",b1bdd31efe275315ce6e4bc33fce7381926552ba,"Carrer de l'Alzinaret, 17, Andorra la Vella"
ChIJzTTVsHSKpRIReaBRnZscAzw,El Reptil,42.5361428,1.5785394,"['lodging', 'point_of_interest', 'establishment']",,"Carrer del Pedral, 25, AD200 Encamp, Andorra",13f7c05692e4a788edf8cf0bb6124f3cfad6d957,"Carrer del Pedral, 25, Encamp"
ChIJmYuaq9CKpRIRD83tZC2rYUM,Espai nuevas sonrisas,42.5066369,1.5302902,"['dentist', 'health', 'point_of_interest', 'establishment']",,"Carrer Bonaventura Riberaygua, 27, AD500 Andorra la Vella, Andorra",a3508574a7f5c1906b0755b628bfe9611d29081d,"Carrer Bonaventura Riberaygua, 27, Andorra la Vella"
ChIJLY4qbYt9rxIRQ9KQJAq5LKQ,RESTAURANT LES ESTRELLES DE NEU,42.54159000000001,1.73274,"['restaurant', 'food', 'point_of_interest', 'establishment']",,"Carrer Bearn, AD200 Pas de la Casa, Andorra",56c03c6d6d284713e3793638c7c8c5a750b09922,"Carrer Bearn, Pas de la Casa"
ChIJkf1FxPtfrxIRW_ze2nEEySw,Oficina de Turisme de la Massana,42.546715,1.514397,"['travel_agency', 'point_of_interest', 'establishment']",4.4,"AD400 La Massana, Andorra",18651711b17685ffdbae0be25437eebfca4ce816,La Massana
ChIJvepqJ9eKpRIRrJzcl4b4Iz8,GRANJA SALÓ DE TE 42 TUITE,42.505639,1.528196,"['cafe', 'store', 'food', 'point_of_interest', 'establishment']",4.9,"Carrer Bonaventura Riberaygua, 42, AD500 Andorra la Vella, Andorra",ec2cc76df4e97d51b035cd078ef684d9e519c867,"Carrer Bonaventura Riberaygua, 42, Andorra la Vella"
ChIJhQK5UuaKpRIRhmmW9L5gXkY,Arxiu Històric d'Escaldes-Engordany,42.5092919,1.5427113,"['library', 'point_of_interest', 'establishment']",,"AD700 Les Escaldes, Andorra",0d520ee5ba9626b8093bbcc67eedd9a4bacca8d9,Les Escaldes
ChIJLycaQMOKpRIRwMpn9TyIBjU,9 Habitatge,42.51246560000001,1.5365438,"['real_estate_agency', 'point_of_interest', 'establishment']",,"Carrer Josep Viladomat, 30, AD700 Escaldes-Engordany, Andorra",82bd14acf1cd2b02870748e9487238ca1332cab6,"Carrer Josep Viladomat, 30, Escaldes-Engordany"
ChIJf2TRb9X0pRIR3P_ovioigh0,BAR RESTAURANT LA NOGREDA,42.5009458,1.5190723,"['bar', 'restaurant', 'food', 'point_of_interest', 'establishment']",4.5,"Ctra. de la Comella i de la Plana, 35, AD500 Andorra la Vella, Andorra",c9b201ae7099203380922de8caca12678c7760c8,"Carretera de la Comella i de la Plana, 35, Andorra la Vella"
ChIJNff5vvtfrxIRnN0SgTbRi0s,El Racó de la Fina,42.5472854,1.5146787,"['restaurant', 'bar', 'food', 'point_of_interest', 'establishment']",4.3,"avinguda del Traves 3, AD400 La Massana, Andorra",57e2fae48b8e1f901b36c176a0f3169bd8f8f187,"avinguda del Traves 3, La Massana"
ChIJs0Aby8KKpRIRZMLQjZvwHnw,angels flors,42.5111315,1.5397719,"['florist', 'store', 'point_of_interest', 'establishment']",,"Josep Viladormat 14, AD700 Escaldes-Engordany, Andorra",6fffdd259418d25ae19881b58afcd23e424a0855,Josep Viladormat 14
ChIJy8D5gtSKpRIRRQhUihTBan8,Gestió Andorra,42.5064291,1.522816299999999,"['accounting', 'finance', 'health', 'point_of_interest', 'establishment']",,"Carrer Prat de la Creu, 65, AD500 Andorra la Vella, Andorra",3b0605d6e593a8f3c460239f3246de053e1bfad7,"Carrer Prat de la Creu, 65, Andorra la Vella"
ChIJN_dBqx9jrxIRn85TkBP7b4s,Sant Pere,42.58048900000001,1.6541335,"['locality', 'political']",,"AD100 Sant Pere, Andorra",dd4e858886556065d94a64ce7d28d6507d27207c,Sant Pere
ChIJcfL0pNuKpRIR8i9adNNNtWM,LA TERMINAL,42.508382,1.533793,"['supermarket', 'grocery_or_supermarket', 'store', 'food', 'point_of_interest', 'establishment']",5.0,"Av. Meritxell, 128, AD500 Andorra la Vella, Andorra",ef134c055b66726fbf0c11289fbb197cf91ea9bd,"Avinguda Meritxell, 128, Andorra la Vella"
ChIJK0JlmIx9rxIRJnz3z1wQ8tw,Gala Perfumeries,42.5432963,1.7331569,"['clothing_store', 'store', 'point_of_interest', 'establishment']",4.5,"Plaça dels Coprínceps, 20, AD200 Pas de la Casa, Andorra",46288f9e42c3c36106cb52b2734695bec660739f,"Plaça dels Coprínceps, 20, Pas de la Casa"
ChIJKdIudduKpRIRniWhePGmP4k,Benetton,42.508983,1.534205,"['clothing_store', 'store', 'point_of_interest', 'establishment']",4.0,"C.C Illa Carlemany, 70, AD700 Andorra la Vella, Andorra",7c38a22238b74f1ca8f9c42b33b9a0ac233566d3,"C.C Illa Carlemany, 70, Andorra la Vella"
ChIJfXVqvIL0pRIRYjEDNOpA8tI,Cajero automático Credit Andorrà,42.4636267,1.4908408,"['atm', 'finance', 'point_of_interest', 'establishment']",,"Av. Verge de Canòlich, 19, AD600 Sant Julià de Lòria, Andorra",29f80284878c1a22657376ea8c45292b69b939e3,"Avinguda Verge de Canòlich, 19, Sant Julià de Lòria"
ChIJY1d2bcSKpRIRMhZBwXuMdWA,Sant Romà dels Vilars,42.5148308,1.5347366,"['church', 'place_of_worship', 'point_of_interest', 'establishment']",4.0,"AD700 Les Escaldes, Andorra",29508459b0bbe16bccb3c7e7771f8a3363082ab1,Les Escaldes
ChIJkTfomNuKpRIRwUG9E2NYJWU,CALZEDONIA,42.5083506,1.5342921,"['clothing_store', 'store', 'point_of_interest', 'establishment']",,"Av. Carlemany, 121, AD700 Escaldes-Engordany, Andorra",96599b46637bad0c2b23ea28252d15d8a6b01839,"Avinguda Carlemany, 121, Escaldes-Engordany"
ChIJF4uLDtqKpRIRhDWf4bCZSUo,Q&diet,42.5072973,1.5309823,"['store', 'point_of_interest', 'establishment']",5.0,"Carrer Ciutat de Consuegra, 5, AD500 Andorra la Vella, Andorra",4f7b12963fc2b2bafbbc9424ab3afafd798907bc,"Carrer Ciutat de Consuegra, 5, Andorra la Vella"
ChIJhUI7RgiKpRIRETMhFG-UACY,Les Bons,42.53333300000001,1.583333,"['locality', 'political']",,"AD200 Les Bons, Andorra",fef11f9e79b1f98cc1586a1e10e2634b642481d4,Les Bons
ChIJs3CosNdirxIRwr_a5wH-_3I,Esports Pirineu,42.576576,1.6681797,"['store', 'point_of_interest', 'establishment']",,"Carretera General 2, AD100 Soldeu, AD100 Soldeu, Andorra",3f8eac651380848e76faba0c283cfd6cc8463aa1,"Carretera General 2, AD100 Soldeu"
ChIJKYTEksSKpRIRngs7agOO19U,Aparcament Del Falgueiro,42.5129027,1.5346755,"['parking', 'point_of_interest', 'establishment']",,"Camí del Falgueró, AD700 Escaldes-Engordany, Andorra",600ef356f38740d6b801986dcb38d91d7379ea89,"Camí del Falgueró, Escaldes-Engordany"
ChIJFwG0Xd2KpRIRsxsrIjL78mU,Clinica dental Mercé baldrich,42.5101361,1.5398361,"['dentist', 'health', 'point_of_interest', 'establishment']",,"Carrer del Parnal, 4, AD700 Escaldes-Engordany, Andorra",2f9400b191692c4b2a72300905b99b6a9ca218bc,"Carrer del Parnal, 4, Escaldes-Engordany"
ChIJlxkYXNyKpRIR_MbTDa-QBZw,GRUP SANTURE,42.50847199999999,1.5368309,"['store', 'point_of_interest', 'establishment']",,"Av. Carlemany, 95, AD700 Escaldes-Engordany, Andorra",5ae0dd6d8535e22b8a1392a65142a6e5aedefd5c,"Avinguda Carlemany, 95, Escaldes-Engordany"
ChIJT3m4p92KpRIRmiayxtYkMm8,Jessica electrònica,42.5086514,1.5384922,"['electronics_store', 'home_goods_store', 'store', 'point_of_interest', 'establishment']",1.4,"Av. Carlemany, 77, AD700 Escaldes-Engordany, Andorra",a31a261e471a929b7a475c8db9c1b62eceb1a642,"Avinguda Carlemany, 77, Escaldes-Engordany"
ChIJKVUebdOKpRIRIqXe0BDdGlI,MO,42.5076923,1.5225356,"['store', 'point_of_interest', 'establishment']",5.0,"Plaça Rebés, 9, AD500 Andorra la Vella, Andorra",5199bfb3b75023ad2d9514465d7a13b28a90b109,"Plaça Rebés, 9, Andorra la Vella"
ChIJefm9RNOKpRIRNp-QW2TvpBo,Church of Saint Stephen,42.50721060000001,1.5217032,"['church', 'place_of_worship', 'point_of_interest', 'establishment']",5.0,"AD500 Andorra la Vella, Andorra",23437a8f8db1b390ab11c5d6c0f3498f9549c659,Andorra la Vella
ChIJ77lUlbKSpRIRWnD3-eudxs8,L'Era De Cal Bastida,42.372764,1.5219404,"['lodging', 'point_of_interest', 'establishment']",4.7,"C/ Soldevila, 8, 25719 Estamariu, Lleida, Spain",2d8923eb643527d9af2232406a30537f60ffb610,"C/ Soldevila, 8, Estamariu"
ChIJgd3FuIt9rxIRhBTAMvMh2h8,Apartamentos Manzano,42.541782,1.73064,"['store', 'lodging', 'point_of_interest', 'establishment']",3.5,"Carrer de la Solana, 55, AD200 Encamp, Andorra",e7fe3847ce39ec22c12268e8d8af8697c9820d68,"Carrer de la Solana, 55, Encamp"
ChIJOVVIizd9rxIRdAZvuOlTSyk,Prat de Baix,42.5594679,1.6855511,"['lodging', 'point_of_interest', 'establishment']",,"Carretera general esc G, pis 1, porta 5 res prat d'envalira - edifici G, AD100 Bordes d´Envalira, Andorra",28ebe3288847fab8cb21d3d511ce74a20ee003f9,"Carretera general esc G, pis 1, porta 5 res prat d'envalira - edifici G, Bordes d´Envalira"
ChIJv2BIYNCKpRIRjBYryEE2fL8,IMMOBILIARIA SOL-IXENT,42.50899859999999,1.5294538,"['store', 'point_of_interest', 'establishment']",,"la, Av. Dr. Mitjavila, 2, AD500 Andorra la Vella, Andorra",40eb2ddec6384a45117ea1236f3b4b8b3a32a9c8,"la, Avinguda Doctor Mitjavila, 2, Andorra la Vella"
ChIJ3R7lc9OKpRIRhl1qe-P9VqM,The Family Arms - Restaurantes,42.50749639999999,1.5229374,"['bar', 'restaurant', 'food', 'point_of_interest', 'establishment']",4.0,"Plaça Rebés, 6, AD500 Andorra la Vella, Andorra",31fdf0ec19f3a2438fe326bcdc5c41d4779a3423,"Plaça Rebés, 6, Andorra la Vella"
ChIJn9QEodSKpRIRERNpssLfT2k,Assessoria TAX Andorra,42.50638,1.521884,"['accounting', 'lawyer', 'finance', 'point_of_interest', 'establishment']",,"Edifici Ag-montducal, 5°, Carrer Pere d'Urg, 10, AD500 Andorra la Vella, Andorra",a0e197c505aa6de91accfd5e4ada2b4ee7453769,"Edifici Ag-montducal, 5°, Carrer Pere d'Urg, 10, Andorra la Vella"
ChIJyynZAdqKpRIRskgduyBzBLQ,Centre D'Atenció Primaria. CAP.,42.50645300000001,1.5307528,"['health', 'point_of_interest', 'establishment']",5.0,"AD500 Andorra la Vella, Andorra",6254ca7731ca9f36439b61420e4c19b6941e6419,Andorra la Vella
ChIJo0o2ZQuKpRIRdWTj2rd4utI,C.A.P. Encamp,42.53572399999999,1.5807893,"['hospital', 'point_of_interest', 'establishment']",,"Prat del Bau, AD200 Encamp, Andorra",693cbc114989bdabf15f7f24bd26d4fc966e4265,"Prat del Bau, Encamp"
ChIJ3W-XTNOKpRIRxTrbYqkZ7Rg,PUNT A PUNT LABORS,42.507452,1.52095,"['store', 'point_of_interest', 'establishment']",3.3,"AD500 Andorra la Vella, Andorra",df41089d5b347211af073a06de15eff85ac1a1bc,Andorra la Vella
ChIJzc1DBdqKpRIRMJ73XwBEU2s,Aparthotel Fontverd,42.50724820000001,1.5307356,"['lodging', 'point_of_interest', 'establishment']",2.2,"AD500 Andorra la Vella, Andorra",e466412c0fc85a0efba3c758129af4597178a7f5,Andorra la Vella
ChIJkfpwlAuKpRIRAecmJ8iYxWU,Crèdit Andorrà,42.53632210000001,1.5824299,"['bank', 'finance', 'point_of_interest', 'establishment']",3.5,"Plaça del Consell, 7, AD200 Encamp, Andorra",b54e460dc22819891b488c99c8bc79e6effbc75c,"Plaça del Consell, 7, Encamp"
ChIJLzQC0oB9rxIR1T8Zgtw395Q,Cepsa - Port d'Envalira,42.539966,1.719526,"['gas_station', 'point_of_interest', 'establishment']",,"CG2 - Km 30.0, Port d'Envalira, AD200 Encamp, Andorra",bbe206270667ddc4de373d71b2bc415d7a2e62de,"CG2 - Km 30.0, Port d'Envalira, Encamp"
ChIJPYykA3OKpRIRM1mIWrmHDa4,Apartaments del Meligar,42.532499,1.576651,"['lodging', 'point_of_interest', 'establishment']",4.6,"Carrer de la Vena nº 9 Aprts del MELIGAR, AD200 Encamp, Andorra",47feeccaf8e5b8ef99424a4c321695152c24426e,"Carrer de la Vena nº 9 Aprts del MELIGAR, Encamp"
ChIJGXj1tduKpRIRAkvblTBvO9g,ESPORTS ALTITUD,42.50763920000001,1.533204,"['store', 'point_of_interest', 'establishment']",4.5,"Carrer de na Maria Pla, 8, AD500 Andorra la Vella, Andorra",aa89d51e2ea46b788b09818d3b57210723bcc4e4,"Carrer de na Maria Pla, 8, Andorra la Vella"
ChIJPbMypVT1pRIR7Z_Fzr8SOiw,Estació de Servei Total la Massana,42.5366229,1.5201469,"['gas_station', 'point_of_interest', 'establishment']",3.0,"AD400 La Massana, Andorra",e851cfb7445e1eb5c1b0eae9555fcfed34197112,La Massana
ChIJYxt0LoP0pRIRpK9zS2vlG0I,CondisLife,42.465762,1.491505,"['supermarket', 'bakery', 'grocery_or_supermarket', 'store', 'food', 'point_of_interest', 'establishment']",5.0,"Carretera d Espanya S/N, AD600 Sant Julià de Lòria, Andorra",8a85ddca3ebcbdffa06f835302ba8b6e4f3539ff,"Carretera d Espanya S/N, Sant Julià de Lòria"
ChIJ68UDs7SKpRIRwFNjwSTe9gw,Església de Sant Antoni de la Grella,42.527642,1.520661,"['church', 'place_of_worship', 'point_of_interest', 'establishment']",4.8,"AD400 La Massana, Andorra",cc053461d81338a797457a92bdd9fddd394207b2,La Massana
ChIJ__-PLmWPpRIR12TGHtOU-f4,Refugi Cap del Rec,42.43120459999999,1.6682458,"['lodging', 'point_of_interest', 'establishment']",4.2,"Refugi de Cap de Rec, 25726 Lles de Cerdanya, Lérida, Spain",8aa743b1e4a85cfdfc1591b73e7a09b6fd0f2e57,"Refugi de Cap de Rec, Lles de Cerdanya"
ChIJ5xA0gIx9rxIR2i-mVQTgkjc,Andbank,42.5428793,1.7321196,"['bank', 'finance', 'point_of_interest', 'establishment']",5.0,"Carrer Sant Jordi, 12, AD200 Pas de la Casa, Andorra",c2f205c3efd6001e7df8dfb1d38c82631f1b5db9,"Carrer Sant Jordi, 12, Pas de la Casa"
ChIJmd28jdCKpRIRwpblHnhb5sc,Advantia Assessors,42.5074729,1.5284865,"['accounting', 'finance', 'point_of_interest', 'establishment']",5.0,"3r- 3a, Carrer Bonaventura Armengol, 15, AD500 Andorra la Vella, Andorra",bd2adfee7716281c125d2a1449c693355bd521e3,"Carrer Bonaventura Armengol, 15, Andorra la Vella"
ChIJO8JtwcKRpRIRLoXLP4ZJ__Y,El Pont de Bar Vell,42.3715328,1.6191659,"['locality', 'political']",,"25723 El Pont de Bar Vell, Lleida, Spain",385002a21fef35e90842ba3249ec4176e419c957,El Pont de Bar Vell
ChIJMQdKxyBjrxIR88-eYLC7plc,Ski Parador Canaro - Pistas de esquí y Hotel,42.57907900000001,1.658914,"['bar', 'store', 'point_of_interest', 'establishment']",2.5,"Carretera General 2, AD100 Soldeu, Andorra",fddbbaa623bb2cc8a009cdf3df9123d7ad290336,"Carretera General 2, Soldeu"
ChIJZTu-myz1pRIRtRkVczSigP0,Cerveseria,42.5069816,1.519261,"['bar', 'point_of_interest', 'establishment']",4.2,"Carrer Antic Carrer Major, 32, AD500 Andorra la Vella, Andorra",6421893d7562ed8690eae1d2fce9d4557a5404ee,"Carrer Antic Carrer Major, 32, Andorra la Vella"
ChIJR6Jy_t30pRIRQFcE4IpW020,Shell Santa Coloma,42.4969318,1.5017671,"['gas_station', 'point_of_interest', 'establishment']",,"Av. d'Enclar, 38, AD500 Santa Coloma, Andorra",e4f9ce15ef86f19c33c719a9472edf0eda095e1f,"Avinguda d'Enclar, 38, Santa Coloma"
ChIJPaivSqhfrxIR-YEGdEkzkJg,El Cabin,42.5732194,1.483386,"['bar', 'point_of_interest', 'establishment']",,"CG-5, 8, AD400, AD400 Arinsal, Andorra",f540ced17f3d02be70afc872b9b7677f3483aae6,"CG-5, 8, AD400, Arinsal"
ChIJJXJ9SdqKpRIRo44CfV-uGco,Espai d'Art,42.5078282,1.5326615,"['art_gallery', 'point_of_interest', 'establishment']",,"Carrer de la Borda, 5, AD500 Andorra la Vella, Andorra",e3a7e9fb739f10e6a3108f790fd3041c4c78a2a8,"Carrer de la Borda, 5, Andorra la Vella"
ChIJx9IZnBt_rxIRCx70gsyV824,La Poste,42.58847329999999,1.7985526,"['post_office', 'finance', 'point_of_interest', 'establishment']",,"ROUTE NATIONALE 20, 09390 L'Hospitalet-prés-l'Andorre, France",8d8911abed4eb7befa4377ca88ee06305ee3ff5e,"ROUTE NATIONALE 20, L'Hospitalet-prés-l'Andorre"
ChIJ624pCqD0pRIRnHtR8ZvM86k,RESTAURANT BORDA DE LES PUBILLES,42.462777,1.502421,"['food', 'point_of_interest', 'establishment']",4.6,"Plaça Major, 1, AD600 Sant Julià de Lòria, Andorra",aa3fcb177c55c6eb1a9b51b3dfd58875716104d8,"Plaça Major, 1, Sant Julià de Lòria"
ChIJVzK46daKpRIRSg7dH369azM,DELTA ALIMENTACIO Productes Portuguesos,42.50517660000001,1.527328,"['store', 'point_of_interest', 'establishment']",4.5,"Av. de Tarragona, 53, AD500 Andorra la Vella, Andorra",87189b14320d70367c54846f92ea9bfb2cbccc34,"Avinguda de Tarragona, 53, Andorra la Vella"
ChIJKXrKpahfrxIRxrqgHzkMUp8,HOTEL VITA ARINSAL,42.5741046,1.4824341,"['lodging', 'point_of_interest', 'establishment']",5.0,"Carretera de Arinsal, 29, AD400 Arinsal, Andorra",f5370eac730f17b673e7add6755884744f789246,"Carretera de Arinsal, 29, Arinsal"
ChIJS9F9GdOKpRIRfi4fSczh_uc,El Taller the Tapeo,42.50856780000001,1.5223674,"['restaurant', 'food', 'point_of_interest', 'establishment']",4.2,"Carrer la Llacuna, 11, AD500 Andorra la Vella, Andorra",d7905323b2514e36fa2a241f64dcb55dd06efdd2,"Carrer la Llacuna, 11, Andorra la Vella"
ChIJA--CWNj0pRIRFUoJhrEgMhQ,Becier Vehicles - Mazda,42.500173,1.508767,"['car_dealer', 'store', 'point_of_interest', 'establishment']",,"Av. Santa Coloma, 89, Andorra La Vella, AD500 Andorra la Vella, Andorra",c51aac5f098784632584cdd5fa47edf2fca2fbf2,"Av. Santa Coloma, 89, Andorra La Vella, Andorra la Vella"
ChIJy60VPt2KpRIRriRnE0ZMYzk,FLECA FONT,42.5100804,1.5387862,"['bakery', 'store', 'food', 'point_of_interest', 'establishment']",1.8,"carrer françois miterrand 2 local 8-9, AD700 Escaldes-Engordany, Andorra",d3cd2cc8a09134df6c19415542551c397138cf56,"carrer françois miterrand 2 local 8-9, Escaldes-Engordany"
ChIJCWZMsNCKpRIR5IySjOecSCE,Pizzeria Primavera,42.506927,1.529843,"['restaurant', 'food', 'point_of_interest', 'establishment']",4.2,"Carrer Callaueta, 8, AD500 Andorra la Vella, Andorra",425de6fae60a6b533f1d78b8fc1b34713ce14f7e,"Carrer Callaueta, 8, Andorra la Vella"
ChIJiX8Hkg3zpRIRIHCZkXCUAAo,Juberri,42.4388503,1.4912187,"['locality', 'political']",,"AD600 Juberri, Andorra",7a251e627910de6ec15c83a1ea818d5d2d97533f,Juberri
ChIJhXYFzyKSpRIRgkDKh49c1-c,El Pont d'Arsèguel,42.3611915,1.5891512,"['locality', 'political']",,"25722 El Pont d'Arsèguel, Lleida, Spain",f8a6245d7eac7c748abf3e118740297aaf9b65bc,El Pont d'Arsèguel
ChIJ8db60-FirxIR9MeueXYqj-E,Renttarter Sans Espais,42.5779292,1.653935,"['lodging', 'point_of_interest', 'establishment']",3.6,"Ctra. de Sant Pere, AD100 Canillo, Andorra",5fcd6785ed2a1de5baa97b047fbc81db9983447f,"Carretera de Sant Pere, Canillo"
ChIJw0IC9d9irxIRYrr6fuU_1wk,Borda Canaro,42.5780696,1.657726,"['lodging', 'point_of_interest', 'establishment']",,"AD100 Canillo, Andorra",00fad3d33d4a44e2ca0c2bc2cbe84259c89398f6,Canillo
ChIJI_oxWdyKpRIRMFpFDJcAuLA,Lolë Atelier Andorra,42.50862,1.536923,"['store', 'point_of_interest', 'establishment']",5.0,"93 Avinguda Carlemany, AD700 Escaldes-Engordany, Andorra",d8cf68e243f4720063e609cbd615f2733870adff,"93 Avinguda Carlemany, Escaldes-Engordany"
ChIJBZNvn9OKpRIRKH8eSCGQOwU,OVS Kids,42.5077248,1.5234776,"['department_store', 'store', 'point_of_interest', 'establishment']",5.0,"Av. Meritxell, 12, AD500 Andorra la Vella, Andorra",d95ebfacb348356dc70656b8742350eb1a1a92ba,"Avinguda Meritxell, 12, Andorra la Vella"
ChIJJ7Bl4dyKpRIRkmC3RqcQWK4,Aparcament Comunal Nacions Unides,42.5097484,1.5375981,"['parking', 'point_of_interest', 'establishment']",,"Av. del Consell de la Terra, AD700 Escaldes-Engordany, Andorra",251040402a9bcfc78bbd2f64256177b779c67460,"Avinguda del Consell de la Terra, Escaldes-Engordany"
ChIJ38LBiyf1pRIRC-XD7-mnK0Y,marcsestil,42.50204239999999,1.50973,"['store', 'point_of_interest', 'establishment']",,"Carrer Gil Torres, 35, AD500 Andorra la Vella, Andorra",084c3b86e4b1918f6303ed00d9b4aeeda1907308,"Carrer Gil Torres, 35, Andorra la Vella"
ChIJp46RZdqKpRIRt5_WVTHwCPQ,OPTIONS + - VIA MODA,42.50834880000001,1.5313424,"['clothing_store', 'store', 'point_of_interest', 'establishment']",4.4,"Av. Meritxell, 87, AD500 Andorra la Vella, Andorra",b2498b501c0c327a0f3012c7ae8f4c567c533211,"Avinguda Meritxell, 87, Andorra la Vella"
ChIJfRVBXNyKpRIRthmfF2qv-mo,Madriu Real Estate,42.508418,1.536813,"['real_estate_agency', 'point_of_interest', 'establishment']",,"Avinguda Carlemany 95 1r 4a Bloc B, AD700 Escaldes-Engordany, Andorra",78d6978174ef22e44a62e1cd8f12f3f93ee45090,"Avinguda Carlemany 95 1r 4a Bloc B, Escaldes-Engordany"
ChIJVSDzDYt9rxIRsnZnWmiJ5_I,Restaurant Blau Envalira,42.5403654,1.7340556,"['store', 'restaurant', 'food', 'point_of_interest', 'establishment']",4.4,"Av. d'Encamp, 29, AD200 Pas de la Casa, Andorra",d5a1410eaae3d1a919438b479ca23209f4b13454,"Avinguda d'Encamp, 29, Pas de la Casa"
ChIJTa2_BdqKpRIRpdd67rlPVhk,JANICE VILLAMOR,42.5069699,1.5309342,"['clothing_store', 'store', 'point_of_interest', 'establishment']",,"Carrer Bonaventura Riberaygua, 17, AD500 Andorra la Vella, Andorra",1af2d47646945db98c356a879d94f83d540b1d90,"Carrer Bonaventura Riberaygua, 17, Andorra la Vella"
ChIJDROrG9OKpRIRYgN1jrqfZWo,SALO D' UNGLES AMELIA,42.5085518,1.522513,"['beauty_salon', 'point_of_interest', 'establishment']",,"Carrer Mossèn Tremosa, 8, AD500 Andorra la Vella, Andorra",b95fa4a36d1d6edb578e8e39435d6a141898d702,"Carrer Mossèn Tremosa, 8, Andorra la Vella"
ChIJa_ui6QuKpRIRSVxpL3mzqEk,Mauco S.A.,42.5172975,1.5551959,"['hardware_store', 'store', 'point_of_interest', 'establishment']",4.5,"Urb. Prat del Salt, Edifici Mauco, AD200 Encamp, Andorra",58decc5ae296bfef5572d027dfbac430a21e7055,"Urb. Prat del Salt, Edifici Mauco, Encamp"
ChIJMRG0KMOKpRIRYXQmPz372Z0,Caldea,42.5118106,1.537524,"['gym', 'health', 'point_of_interest', 'establishment']",3.8,"Carrer Josep Viladomat, 30, AD700 Escaldes-Engordany, Andorra",ae552ef9bbe7cd8f8fef47ceaef99a34d6afc65e,"Carrer Josep Viladomat, 30, Escaldes-Engordany"
ChIJ-SqubYt9rxIRA0dFJ0vGfHA,Hotel La Muntanya,42.5419279,1.732705,"['lodging', 'point_of_interest', 'establishment']",3.0,"AD200 El Pas de la Casa, Andorra",332aa5d087f913ff40e74bbbd5820a99c3b2a997,Andorra
ChIJ8WTN7eeKpRIRKt_iqiD-nDI,Hotel Kyriad Comtes d'Urgell Andorra,42.5107609,1.5411151,"['lodging', 'point_of_interest', 'establishment']",3.3,"Av. de les Escoles, 29, AD700 Escaldes-Engordany, Andorra",cdbdf2521a653d72797e4dbf80286f2fa67efeb1,"Avinguda de les Escoles, 29, Escaldes-Engordany"
ChIJP2m4YPlfrxIRuem8z-nMQXU,Refugi dels Estanys Forcats,42.545625,1.5147392,"['lodging', 'point_of_interest', 'establishment']",,"AD400 La Massana, Andorra",75f12268583251aa54c2c5b91ecea98e3552b078,La Massana
ChIJV4NJV9ZirxIRd01fXrIAKy0,Hotel Piolets,42.5766053,1.6672112,"['lodging', 'point_of_interest', 'establishment']",3.7,"Carretera General, s/n, AD100 Soldeu, Andorra",b8273a016d2d16a1b27c81ded21a83a5c2e5b649,"Carretera General, s/n, Soldeu"
ChIJwUBUSdOKpRIR41CrxpHFTj4,Consultori Medic Becerra - Boneu,42.5075041,1.5211783,"['doctor', 'health', 'point_of_interest', 'establishment']",,"Av. Príncep Benlloch, 8, AD500 Andorra la Vella, Andorra",016e52f4fc01aa1265b508b52903efeedf367f25,"Avinguda Príncep Benlloch, 8, Andorra la Vella"
ChIJAUP9k9qKpRIR1jX3sJzfHOA,Pensió Albert,42.509787,1.5314734,"['lodging', 'point_of_interest', 'establishment']",,"AD500 Andorra la Vella, Andorra",5f0c43ace1aed89d683cfc16032c842c962888d6,Andorra la Vella
ChIJ9SXfFN2KpRIRoEMkdSR2Dkc,Aparcament Comunal Prat Gran (Autobusos),42.5098514,1.5389626,"['parking', 'point_of_interest', 'establishment']",4.8,"AD700 Les Escaldes, Andorra",af3b4bf1f4eb466480e5e60272b86d7224624b71,
ChIJsyK-YNyKpRIR5qCj9r4OZLc,Gala Perfumeries,42.5086294,1.5366345,"['clothing_store', 'store', 'point_of_interest', 'establishment']",5.0,"Av. Carlemany, 99, AD700 Escaldes-Engordany, Andorra",bedf9ca0bfddac575c26f4ac527e6da80a2d03bc,"Avinguda Carlemany, 99, Escaldes-Engordany"
ChIJ77kOu9CKpRIR4NWTgkzVb8c,Augé Real Estate - Agència Immobiliària a Andorra,42.5072759,1.5298113,"['real_estate_agency', 'point_of_interest', 'establishment']",5.0,"Carrer de l'Aigüeta, 14, AD500 Andorra la Vella, Andorra",50695e576ab8660fc976fa08244bdbbb4a16750b,"Carrer de l'Aigüeta, 14, Andorra la Vella"
ChIJi_-EVOf0pRIRvJTktz_w_z4,Estació de Servei el Cedre (Total),42.49689530000001,1.5012265,"['gas_station', 'point_of_interest', 'establishment']",,"AD500 Santa Coloma, Andorra",90c13da3887c7a1c7c0e6456d69570926f968dac,Santa Coloma
ChIJ2W1utN2KpRIRclrbVereoFU,Excursiones Andorra,42.50783500000001,1.5380163,"['travel_agency', 'point_of_interest', 'establishment']",5.0,"Carrer Ciutat de Sabadell, 12, AD700 Escaldes-Engordany, Andorra",d53fd8531c8732d2345ad113a74975e887341f67,"Carrer Ciutat de Sabadell, 12, Escaldes-Engordany"
ChIJOyw8nueKpRIRJrs9jz5HG8E,LLIBRERIA FRANCESA,42.50881199999999,1.541227,"['book_store', 'store', 'point_of_interest', 'establishment']",,"Av. Carlemany, 28, AD700 Escaldes-Engordany, Andorra",794b59f16e949600b1092eedd2a7e2b9132a0503,"Avinguda Carlemany, 28, Escaldes-Engordany"
ChIJybo5ZtqKpRIRk91cTrcaoLE,ZARA,42.50833639999999,1.531561,"['clothing_store', 'store', 'point_of_interest', 'establishment']",3.9,"Av. Meritxell, 89, AD500 Andorra la Vella, Andorra",c08563afe5ccdc18d3988805e6fbd1c2a466d543,"Avinguda Meritxell, 89, Andorra la Vella"
ChIJ6x8Ceyn1pRIRrWDMlxSFJBQ,Comic Bar,42.5046706,1.5155719,"['bar', 'point_of_interest', 'establishment']",,"5-, Carrer Prada Motxilla, 6, AD500 Andorra la Vella, Andorra",33b53fdd3a08dc56c103aaf263f4ccc37a777a5a,"5-, Carrer Prada Motxilla, 6, Andorra la Vella"
ChIJJ8hO3u-KpRIRJldYU-bmd8U,Cafè la Brasilera,42.51241840000001,1.549746,"['school', 'point_of_interest', 'establishment']",,"Passatge Partida d'Ensucaranes, AD700 Escaldes-Engordany, Andorra",e28647b9406bb4d89e3ceeeaece5ea2d23285d8d,"Passatge Partida d'Ensucaranes, Escaldes-Engordany"
ChIJ-_oroJz0pRIRo6HgwPkv7Ew,Estrella SL,42.4675571,1.4930026,"['home_goods_store', 'store', 'point_of_interest', 'establishment']",,"Av. Verge de Canòlich, 76, AD600 Sant Julià de Lòria, Andorra",4008b4b6c5a82dc85473368521560b79ecb686e1,"Avinguda Verge de Canòlich, 76, Sant Julià de Lòria"
ChIJN-gSbYt9rxIRGpyL0xv7x7U,DVOTION,42.54169199999999,1.732672,"['clothing_store', 'shoe_store', 'store', 'point_of_interest', 'establishment']",,"Carrer Catalunya, 15, AD200 Pas de la Casa, Andorra",8b8c4f8e870bf0c87434fd867d182868c4e50369,"Carrer Catalunya, 15, Pas de la Casa"
ChIJ-VVQ9tj0pRIRDbbCciGBEV4,Becier Vehicles - Mitsubishi,42.5001727,1.5086376,"['car_dealer', 'store', 'point_of_interest', 'establishment']",,"Av. de Santa Coloma, 89, AD500 Andorra la Vella, Andorra",f1482e14250027ff51e41eefb86e2b6c44935f67,"Avinguda de Santa Coloma, 89, Andorra la Vella"
ChIJQWTkR_lfrxIRCPY7LHq1l1M,"SERVISSIM, S.L.",42.54470200000001,1.515394,"['real_estate_agency', 'point_of_interest', 'establishment']",,"Av. Sant Antoni, 26, baixos, AD400 La Massana, Andorra",65f8c3b48c5a44c0ddb28e8881d3223a4f4f4bef,"Av. Sant Antoni, 26, baixos, La Massana"
ChIJgw6uetqKpRIRQq7NyBMzBPU,OPTIONS - VIA MODA,42.5083263,1.5312358,"['clothing_store', 'store', 'point_of_interest', 'establishment']",4.0,"Av. Meritxell, 85, AD500 Andorra la Vella, Andorra",4de7e466d46aebc398fb6810ceb7c1285c34d5e5,"Avinguda Meritxell, 85, Andorra la Vella"
ChIJH4ehgt2KpRIRJ9Aypzy4ZaQ,Òptica Sorteny,42.5087555,1.5398133,"['store', 'health', 'point_of_interest', 'establishment']",3.7,"Plaça Coprínceps, 1, AD700 Escaldes-Engordany, Andorra",75c236f0333a45586a401f75649d85e1f2c638b1,"Plaça Coprínceps, 1, Escaldes-Engordany"
ChIJKeuBVHzzpRIR6M5JNm0DPSI,Estació de Servei Cepsa,42.46022569999999,1.4891067,"['gas_station', 'point_of_interest', 'establishment']",3.7,"AD600 Sant Julià de Lòria, Andorra",7fa9a40612d1dcbcf5aff03c970c4983c53976c6,Sant Julià de Lòria
ChIJFVUrMHKKpRIRueKTXb3_lVo,Granja Pastisseria Primavera,42.5323635,1.5747762,"['bakery', 'store', 'food', 'point_of_interest', 'establishment']",4.0,"Av. de Joan Martí, 87, AD200 Encamp, Andorra",0aa88a97e0071741b9538e3db116fe6594622bef,"Avinguda de Joan Martí, 87, Encamp"
ChIJL0M61AuKpRIR-42LWme8IRM,Aparcament Comunal de Mitjorn,42.5373299,1.5836555,"['parking', 'point_of_interest', 'establishment']",,"AD200 Encamp, Andorra",7c0cb3025c55f9636278d0c2efac64b562a0f906,Encamp
ChIJQSzKK-f0pRIR9HMr3mARQGo,Saltoki Andorra,42.4968069,1.49925,"['store', 'point_of_interest', 'establishment']",,"Els Barrers 16-18, AD500 Santa Coloma, Andorra",da6318bbb28ff480b88860b31b6afbe076f7a81a,"Els Barrers 16-18, Santa Coloma"
ChIJm6s9Pyn1pRIRQbJ65sI3HdU,PASTISSERIA EL TORTELL,42.505668,1.514708,"['bakery', 'store', 'food', 'point_of_interest', 'establishment']",3.7,"Carrer Ciutat de Valls, 44, AD500 Andorra la Vella, Andorra",7f2cd917cd99f608cc6b924fa23f6317dae197f0,"Carrer Ciutat de Valls, 44, Andorra la Vella"
ChIJ99J8vO_0pRIREUGVc10pW4M,Roureda de la Margineda,42.4907181,1.4934752,"['museum', 'point_of_interest', 'establishment']",5.0,"Carrer Roureda de Malreu, 8, AD500 Santa Coloma, Andorra",26b5daaca7aa347a9c9630d909a49b1ca2b3fd85,"Carrer Roureda de Malreu, 8, Santa Coloma"
ChIJVwqQn9uKpRIRM_qcNct3iBw,Farmàcia Galeno Illa,42.5087774,1.5341948,"['pharmacy', 'store', 'health', 'point_of_interest', 'establishment']",4.0,"Av. Carlemany, 68, AD700 Escaldes-Engordany, Andorra",181b89d0cc9c1ceb24604150b57cf24ced0cfd73,"Avinguda Carlemany, 68, Escaldes-Engordany"
ChIJV7lzfNhirxIRbcjMZQY2JnU,SHUSSKI PIOLETS PARK,42.577728,1.664202,"['store', 'point_of_interest', 'establishment']",,"AD100 Soldeu, Andorra",bfcb980e58e885a6ff7103585c565260768d42f8,Soldeu
ChIJ0SQc7l9frxIResWfakSil-I,Cm-experience,42.54229319999999,1.4619521,"['lodging', 'point_of_interest', 'establishment']",,"Camí del Cardemeller, AD400 La Massana, Andorra",52d85d0d88d5a41f998c45c28d6dbf1278158f1a,"Camí del Cardemeller, La Massana"
ChIJ_foxWdyKpRIRm5CYdit2N0E,Noranta Tres,42.5083452,1.536916,"['restaurant', 'food', 'point_of_interest', 'establishment']",,"Av. Carlemany, 93, AD700 Escaldes-Engordany, Andorra",4fb5639746b02b36db4951e642342ae6a82b87fd,"Avinguda Carlemany, 93, Escaldes-Engordany"
ChIJ1a6-pduKpRIRN60pPomw82M,Residència Marticella,42.50830250000001,1.5335921,"['food', 'point_of_interest', 'establishment']",3.0,"Av. Meritxell, 124, AD500 Andorra la Vella, Andorra",365a0526aba20b4f3030fbf7f39fd61e5b063f2c,"Avinguda Meritxell, 124, Andorra la Vella"
ChIJrTTNmYt9rxIRfngAsGLHK50,P&C Apartaments,42.5417559,1.7314185,"['lodging', 'point_of_interest', 'establishment']",,"C/ DE LA Solana, ED. Laked Placid 19, AD200 Pas de la Casa, Andorra",adf90b364cada70328a63ee49ab56aa60952d104,"C/ DE LA Solana, ED. Laked Placid 19, Pas de la Casa"
ChIJO3VBodSKpRIRx-cA-Wg99-I,Immobiliària Prèmium,42.506317,1.521836,"['real_estate_agency', 'point_of_interest', 'establishment']",5.0,"Baixada del Molí, 39 Local 2, AD500 Andorra",d365e92fba3abf1a16b5eb8eb0b522090fb41950,"Baixada del Molí, 39 Local 2, Andorra"
ChIJ9R5BPtj0pRIRlWaTaQaIVh4,AUTOMOTORACING (AMR1),42.5007402,1.5097951,"['car_repair', 'store', 'point_of_interest', 'establishment']",4.0,"Av. de Santa Coloma, 77, AD500 Andorra la Vella, Andorra",8cb2b5ac1e95db55e8c334423626b081c641d5b5,"Avinguda de Santa Coloma, 77, Andorra la Vella"
ChIJVXd5OxxjrxIRaDi_PMOQ8bM,Hotel Apartamentos Julia,42.581654,1.651039,"['lodging', 'point_of_interest', 'establishment']",1.3,"Carretera General, AD400, Andorra",358cf05e2d6316ee0ed8599ffbdc2b49f1d240ef,Carretera General
ChIJmbOUbin1pRIRDLWCpWN4wZs,Estació de Servei GALP Stela Andorrana,42.5050579,1.5152459,"['gas_station', 'point_of_interest', 'establishment']",,"AD500 Andorra la Vella, Andorra",f6df961b6ca391420338c1ab41d8f71cf1df9997,Andorra la Vella
ChIJHXoLvahfrxIRDawN0JzAPTg,SUPERMERCAT MOLES ARINSAL,42.571368,1.486007,"['supermarket', 'grocery_or_supermarket', 'store', 'food', 'point_of_interest', 'establishment']",4.5,"Carretera General 27, AD400 La Massana, Andorra",58dd5cd3544b44676db7778e83fb70e104220fb3,"Carretera General 27, La Massana"
ChIJRSZ9ndCKpRIRiuxpPb5hexE,Parfois,42.5079147,1.5303936,"['store', 'point_of_interest', 'establishment']",4.0,"Avinguda Meritxell 92-94 (Passatge Biscariet), AD500 Andorra la Vella, Andorra",202334df603534e37b146dc1950e14dac2596f63,"Avinguda Meritxell 92-94 (Passatge Biscariet), Andorra la Vella"
ChIJsWahut2KpRIR3e6BBv-O7M0,La Tapad´era,42.50812659999999,1.5386051,"['restaurant', 'food', 'point_of_interest', 'establishment']",,"Av. del Fener, 17, AD700 Escaldes-Engordany, Andorra",08a25bd710753bade052bb078a2f0f1adda1bdd0,"Avinguda del Fener, 17, Escaldes-Engordany"
ChIJgZy2oCn1pRIRL7DVe3OOWq0,Edifici Baluard Andorra,42.5041409,1.5145285,"['general_contractor', 'point_of_interest', 'establishment']",,"Av. de Santa Coloma, AD500 Andorra la Vella, Andorra",a9590acfcf6b62ef09cab8f0d36e1771b10ad037,"Avinguda de Santa Coloma, Andorra la Vella"
ChIJGXfK8tdirxIReNCyJRlvjDE,Bruxelles,42.5768218,1.6666164,"['restaurant', 'food', 'point_of_interest', 'establishment']",3.5,"Carretera General, AD100 Soldeu, Andorra",6a3c0c39cc01a30a361b96bc9438694b21ed618e,"Carretera General, Soldeu"
ChIJzVIDjdOKpRIRglnI1TotW0M,NOTARIA BARTUMEU,42.50700489999999,1.5243802,"['finance', 'point_of_interest', 'establishment']",,"Carrer Prat de la Creu, 36, AD500 Andorra la Vella, Andorra",f4de17aaf06e2ef252b5d3e27d95f59039a92709,"Carrer Prat de la Creu, 36, Andorra la Vella"
ChIJR16PCPBfrxIR2ZtbV22o2PY,Andorre Pneus Estacio ELF - Eurotyre,42.550186,1.511006,"['car_repair', 'store', 'point_of_interest', 'establishment']",,"Avinguda del Ravell, AD400 La Massana, Andorra",7932037b8cc04178ec8c0ed6c4e6e8325c663eb7,"Avinguda del Ravell, La Massana"
ChIJzViSVgiKpRIRXFOnM9ahGGo,COMERÇ LES BONS,42.537761,1.586641,"['supermarket', 'grocery_or_supermarket', 'store', 'food', 'point_of_interest', 'establishment']",4.7,"Av. de Rouillac, 23, AD200 Encamp, Andorra",fb3d00c8ca64de652cf3768afa684c716b95d115,"Avinguda de Rouillac, 23, Encamp"
ChIJi1-J8ueKpRIRx3_vYIfWAYo,Tintoreria I Bugaderia SERVINET,42.510127,1.5407814,"['laundry', 'point_of_interest', 'establishment']",,"Av. de les Escoles, 23, AD700 Escaldes-Engordany, Andorra",ea3e2cf55c939635e7b6ba0a5621fe465c54b49c,"Avinguda de les Escoles, 23, Escaldes-Engordany"
ChIJi2z9pNCKpRIRYsMINfRGjc8,Friking Andorra,42.5072231,1.5300608,"['clothing_store', 'store', 'point_of_interest', 'establishment']",5.0,"Carrer Joan Maragall, 14, AD500 Andorra la Vella, Andorra",050d46393c9094af3980185b17e082fb45741184,"Carrer Joan Maragall, 14, Andorra la Vella"
ChIJn03cCduKpRIR0kkrOTPjhB0,Parking Saba Cèntric,42.508768,1.530825,"['parking', 'point_of_interest', 'establishment']",3.5,"Carrer Pau Casals, s/n, AD500 Andorra",4315029ec4b4f28cdc70f189266d9b3dc7d8960f,"Carrer Pau Casals, s/n, Andorra"
ChIJxZYakYx9rxIRge1WTyYZBiM,Aparcament Comunal del Consell,42.54360859999999,1.7327868,"['parking', 'point_of_interest', 'establishment']",,"AD200 El Pas de la Casa, Andorra",bc3bbd8eedcec99c28ff8e55ee7223dd03b1e148,El Pas de la Casa
ChIJ9WFh15z0pRIRIPJyezk-bM0,"Escola Espanyola, Maternal i Primària Francesa de Sant Julià de Lòria",42.4654621,1.4923527,"['school', 'point_of_interest', 'establishment']",3.5,"AD600 Sant Julià de Lòria, Andorra",1db66928380a71f1183439f9e95d948e11fe2ea0,Sant Julià de Lòria
ChIJNWm4YPlfrxIRGwXUgWvMpjY,Capelli - Perruqueria i estètica,42.544663,1.515466,"['hair_care', 'point_of_interest', 'establishment']",5.0,"Av. de Sant Antoni, 26, Local 1, AD400 La Massana, Andorra, AD400 La Massana, Andorra",2e7312e3a234d86401e610e4e5506be82057f1c3,"Av. de Sant Antoni, 26, Local 1, AD400 La Massana, Andorra, La Massana"
ChIJWavrwdOKpRIRZ4JOfUlctR0,Hotel City M28,42.5078155,1.5247303,"['lodging', 'point_of_interest', 'establishment']",3.1,"Av. Meritxell, 28, AD500 Andorra la Vella, Andorra",8d2ad0141f053980e7e0919aa1ea6084d88f53eb,"Avinguda Meritxell, 28, Andorra la Vella"
ChIJ4U7ZBAFfrxIRcXmHrB_K-YA,Aparcament,42.5776455,1.479292,"['parking', 'point_of_interest', 'establishment']",3.0,"AD400 Arinsal, Andorra",66740fcbcba368ca199262c377fcc62c2735a36c,Arinsal
ChIJTfTmigyKpRIRXucMTKdHyH0,Vatel Andorra International Business School Hotel & Tourism Mangement,42.5336231,1.5810638,"['school', 'point_of_interest', 'establishment']",,"Carrer d'Engolasters, AD200 Encamp, Andorra",c62997449bde78a8c653134da340bd518b270b45,"Carrer d'Engolasters, Encamp"
ChIJV2fFSteKpRIRrmOq9Yv4J9k,Bar Restaurant Terra Alta,42.50642089999999,1.5294446,"['bar', 'restaurant', 'food', 'point_of_interest', 'establishment']",2.0,"Carrer Pere d'Urg, 17, AD500 Andorra la Vella, Andorra",09dfc6fc628978e38731f4b037fddb4dff045488,"Carrer Pere d'Urg, 17, Andorra la Vella"
ChIJ31jfoduKpRIRemCAfQfq2e8,Subway Andorra,42.5085648,1.5341471,"['restaurant', 'food', 'point_of_interest', 'establishment']",4.2,"Av. Carlemany, 84, AD700 Escaldes-Engordany, Andorra",d7903c043836c37083eef642153c371b8990ddf8,"Avinguda Carlemany, 84, Escaldes-Engordany"
ChIJvQEri9dirxIRv3fVkAPkles,HOTEL BRUXELLES,42.576857,1.666514,"['lodging', 'point_of_interest', 'establishment']",3.8,"AD100 Soldeu, Andorra",1447e77702d9db4a86a58f264b1cca48be9c3aa9,Soldeu
ChIJE-hQvtSKpRIREPA2N2ZrrFw,Parking Autobuses,42.5055182,1.5219454,"['parking', 'point_of_interest', 'establishment']",4.0,"Carrer Dr. Vilanova, 9, AD500 Andorra la Vella, Andorra",e57ae83f38e3dcfd45cdf4381204c23993f8d6b8,"Carrer Doctor Vilanova, 9, Andorra la Vella"
ChIJFzSsZKpjrxIRkxhQYfDs2ys,"""mieuxfiscal"" ASSESSORS ASSOCIATS P & E",42.508749,1.530514,"['finance', 'point_of_interest', 'establishment']",,"Carrer Pau Casals, 8, AD500 Escaldes-Engordany, Andorra",721afd590709f429109a8e68429e14390b8bae2e,"Carrer Pau Casals, 8, Escaldes-Engordany"
ChIJUy0EeidirxIRMWdUTAKH7RU,TINC 7,42.56647600000001,1.5989453,"['restaurant', 'food', 'point_of_interest', 'establishment']",3.5,"Av. Sant Joan de Caselles, AD100 Canillo, Andorra",e3b4dc98ff41bd9b4a6fb777aec70abf92c18c13,"Avinguda Sant Joan de Caselles, Canillo"
ChIJIQycW9yKpRIR7KRujNG9bZo,Restaurant les Closes,42.508472,1.536831,"['restaurant', 'food', 'point_of_interest', 'establishment']",4.0,"Av. Carlemany, 95, AD700 Escaldes-Engordany, Andorra",201b07afe7d386765456419ca461d750db41ab17,"Avinguda Carlemany, 95, Escaldes-Engordany"
ChIJ-VVQ9tj0pRIRicW0-6h7m1U,Becier Vehicles - SsangYong,42.5001727,1.5086376,"['car_dealer', 'store', 'point_of_interest', 'establishment']",,"Av. de Santa Coloma, 89, AD500 Andorra la Vella, Andorra",6a9499fbcd6885ec018942711d8b1ed4f1a6d22f,"Avinguda de Santa Coloma, 89, Andorra la Vella"
ChIJl5juk9dirxIRC0GNGUyPBgs,Hotel Piolets Soldeu Centre,42.5766053,1.6672112,"['lodging', 'point_of_interest', 'establishment']",4.0,"Carretera General, s/n, AD100 Soldeu, Andorra",67a3b57b6d84667ad3852c9bc46ea9ba1597de73,"Carretera General, s/n, Soldeu"
ChIJMV538YyHpRIR79UI5ghbT44,Parking El Cubil,42.5319577,1.6974985,"['parking', 'point_of_interest', 'establishment']",4.5,"Ctra. de Grau Roig, AD200 Encamp, Andorra",51d2da5473f3c33361a96e3f31de04a5a696784e,"Carretera de Grau Roig, Encamp"
ChIJO1bQJtSKpRIRi5a_aUi4S6M,Dugar,42.5049492,1.5255243,"['furniture_store', 'home_goods_store', 'store', 'point_of_interest', 'establishment']",,"Av. de Tarragona, 71, AD500 Andorra la Vella, Andorra",11a5abaec2d5b75884cfdc0879719752464ef6ea,"Avinguda de Tarragona, 71, Andorra la Vella"
ChIJ-VOClR1jrxIR5PGbRt45tWU,HOTEL XALET,42.57952,1.650407,"['lodging', 'point_of_interest', 'establishment']",3.4,"AD100 El Tarter, Andorra",7b8ad024bc098fd9eafbdd4c929d91fee6b05db1,El Tarter
ChIJpZMPB9qKpRIR7SC9_YlB1tQ,Pelostop,42.5068715,1.5306568,"['beauty_salon', 'hair_care', 'health', 'point_of_interest', 'establishment']",1.0,"Carrer Bonaventura Riberaygua, 21, AD500 Andorra la Vella, Andorra",a5f9d45ef2f587128fe0e7f0d69ef9dc09ba46fc,"Carrer Bonaventura Riberaygua, 21, Andorra la Vella"
ChIJDSJI1vtfrxIRVtipT2honS0,Carnisseria - Xarcuteria Angela,42.54598209999999,1.5140266,"['store', 'food', 'point_of_interest', 'establishment']",3.0,"Av. de Sant Antoni, 12, AD400 La Massana, Andorra",32861a6ae0c9403c23d60bd0949b8bd5d1b0c103,"Avinguda de Sant Antoni, 12, La Massana"
ChIJTUsigNSKpRIRUC7dRza5_iM,And.Immo,42.506519,1.523198,"['real_estate_agency', 'point_of_interest', 'establishment']",5.0,"Prat de la Creu 59, Esc D, 3r 4a, AD500 Andorra la Vella, Andorra",6c2a53b1b2e2d19af1f52c32b38527a8c9d4975d,"Prat de la Creu 59, Esc D, 3r 4a, Andorra la Vella"
ChIJV7KwpduKpRIRaK57gtP3vzg,Matricella,42.5084538,1.5336895,"['restaurant', 'food', 'point_of_interest', 'establishment']",4.0,"Av. Meritxell, 128, AD500 Andorra la Vella, Andorra",f9b4f175993f07838ab7287e1d82b3e1102bee11,"Avinguda Meritxell, 128, Andorra la Vella"
ChIJVZ9f9NOKpRIR6bb3_a2h60M,Estació de Servei Auto Centre (Cepsa),42.5067358,1.5245883,"['gas_station', 'point_of_interest', 'establishment']",4.0,"AD500 Andorra la Vella, Andorra",a6053091eaf6a889ccf2cc99248355c66b78c5e3,Andorra la Vella
ChIJt8RznueKpRIRJaJCuDJRrbw,Centre d'Art d'Escaldes-Engordany (CAEE),42.5087773,1.5409333,"['museum', 'point_of_interest', 'establishment']",4.4,"Av. de les Escoles, 2, AD700 Escaldes-Engordany, Andorra",7ba6e5b42a7e1b989856b51146bc550d7addfbfd,"Avinguda de les Escoles, 2, Escaldes-Engordany"
ChIJ6WRK8nnzpRIRhAFDp4FdB8U,River Cafè,42.454032,1.486521,"['cafe', 'store', 'food', 'point_of_interest', 'establishment']",3.8,"AD600 Sant Julià de Lòria, Andorra",1c339d3cd198780518ccd059eeb86cdf012036e7,Sant Julià de Lòria
ChIJFWVxPtOKpRIRNQkWhE4iP-0,London Café Andorra,42.5078043,1.5223208,"['restaurant', 'food', 'point_of_interest', 'establishment']",2.5,"Passatge Isabelle Sandy, 2, Cap del Carrer, AD500 Andorra la Vella, Andorra",34fd28a84f9871d920de7ed449c8a9e726348dd1,"Passatge Isabelle Sandy, 2, Cap del Carrer, Andorra la Vella"
ChIJ-7sRYqhfrxIR8AgSfWJRvMw,ESPORTS SANT MORITZ,42.571653,1.484523,"['clothing_store', 'store', 'point_of_interest', 'establishment']",4.3,"Carretera D'arinsal 16, ED. Joan DE Torne, AD400 Arinsal, Andorra",fe9f74c3d8091edcf07b8e54807dc97cbffdf763,"Carretera D'arinsal 16, ED. Joan DE Torne, Arinsal"
ChIJP-dbCtGKpRIRmxVTZHlNr8M,Viajart.com,42.508844,1.527086,"['travel_agency', 'point_of_interest', 'establishment']",,"Carrer Dr. Molines, 10, AD500 Andorra la Vella, Andorra",62f52e046b603914ecb2aa3e5f6f1b41bb1d4cf7,"Carrer Doctor Molines, 10, Andorra la Vella"
ChIJ_yudAd2KpRIReplybIbtaHs,Casa del Formatge,42.50906699999999,1.537954,"['restaurant', 'food', 'point_of_interest', 'establishment']",1.5,"Carrer Copríncep François Mitterrand, AD700 Escaldes-Engordany, Andorra",5edd4e4b7df0a64f71475f985be46c25031d2b84,"Carrer Copríncep François Mitterrand, Escaldes-Engordany"
ChIJxXThpt2KpRIRC3ImGPLvMXE,Òptica Visual Andorrana,42.5086272,1.538629,"['store', 'health', 'point_of_interest', 'establishment']",,"Av. Carlemany, 73, AD700 Escaldes-Engordany, Andorra",a22d11706453c37c9360417ab1a38e370c5b44f9,"Avinguda Carlemany, 73, Escaldes-Engordany"
ChIJUUMKltuKpRIRpXxBOr__M2s,Pizzeria Angelo,42.50799799999999,1.5342507,"['restaurant', 'food', 'point_of_interest', 'establishment']",4.3,"Carrer de la Unió, 9, AD700 Escaldes-Engordany, Andorra",1fd2117c83a68adcfeadfbbbf571d43f7cc40b9d,"Carrer de la Unió, 9, Escaldes-Engordany"
ChIJtW2Agd2KpRIR8lar0FNwHXA,Hotel Eureka,42.50889799999999,1.540259,"['lodging', 'point_of_interest', 'establishment']",3.8,"Av. Carlemany, 36, AD700 Escaldes-Engordany, Andorra",c87f98c9d30ff98fd11fbcac628a20abf4eb8b75,"Avinguda Carlemany, 36, Escaldes-Engordany"
ChIJN5uwVef0pRIRVxKx8o_pLdg,ESTACIÓ TOTAL - EL CEDRE,42.496814,1.501386,"['gas_station', 'point_of_interest', 'establishment']",4.0,"Av. d'Enclar, 50, AD500 Santa Coloma, Andorra",0d25431f22db9d146ba1fedd8e99ac1c4e402677,"Avinguda d'Enclar, 50, Santa Coloma"
ChIJMYsq2daKpRIRkDwmLtUyqwM,Bar l'Estació,42.5055691,1.5279693,"['bar', 'point_of_interest', 'establishment']",2.5,"Carrer Bonaventura Riberaygua, 52, AD500 Andorra la Vella, Andorra",5500e706b2cefae203acaa2112974bfda9586396,"Carrer Bonaventura Riberaygua, 52, Andorra la Vella"
ChIJT9NaEhXzpRIRHtDkUKQUbgI,Aparcament Naturlàndia Camp Base,42.441937,1.5001747,"['parking', 'point_of_interest', 'establishment']",3.3,"AD600 Sant Julià de Lòria, Andorra",81bcd601d39ded0ae2b94824776937c3a4c86cf6,Sant Julià de Lòria
ChIJU84_RdeKpRIRxGOFVgQEoLA,Perfumerias If,42.50575720000001,1.5298683,"['clothing_store', 'store', 'point_of_interest', 'establishment']",3.0,"Av. de Tarragona, 22, AD500 Andorra la Vella, Andorra",14f7e1fa9e44c24a27570975e8d2486b273a9a0c,"Avinguda de Tarragona, 22, Andorra la Vella"
ChIJl8asC9qKpRIR_bX2GmI7VgE,Seventeen Pollyanna I,42.5074711,1.5304311,"['clothing_store', 'store', 'point_of_interest', 'establishment']",4.0,"Carrer de l'Aigüeta, 10, AD500 Andorra la Vella, Andorra",9cc3d8d02c96c5ef00d31aec2cf13ad73adb519f,"Carrer de l'Aigüeta, 10, Andorra la Vella"
ChIJGY_qa4t9rxIR6bGM-72562Q,Hotel Catalunya Pas de la Casa,42.5418171,1.7329682,"['lodging', 'point_of_interest', 'establishment']",4.3,"Carrer Catalunya, 4, AD200 Pas de la Casa, Andorra",b91d2de6839620e1a5e11bdb288ae3a92746ca1e,"Carrer Catalunya, 4, Pas de la Casa"
ChIJg4ORbNOKpRIRPm6EjqNxYlo,N10,42.5077129,1.5224416,"['clothing_store', 'store', 'point_of_interest', 'establishment']",,"Plaça Rebés, 10, AD500 Andorra la Vella, Andorra",bb7177eff9b221bf7cc9ab8b060508aa29da0c1f,"Plaça Rebés, 10, Andorra la Vella"
ChIJoSn7VY1hrxIRAJh2D1vMXHE,Cementiri Nou de Canillo,42.5598604,1.5887345,"['cemetery', 'premise', 'point_of_interest', 'establishment']",,"AD100 Canillo, Andorra",83dd2396075a77432bf4855f253f02605afe57e2,Canillo
ChIJ5WQM5tCKpRIRPeifQ0ZPihU,FIMARGE,42.507982,1.528666,"['finance', 'point_of_interest', 'establishment']",,"Bonaventura Armengol, 10, Centre de Negoci Montclar, 5º planta, AD500 Andorra la Vella, Andorra",41b5c5974c6574c678777336a861717b8d3a532b,"Bonaventura Armengol, 10, Centre de Negoci Montclar, 5º planta"
ChIJj63eU9qKpRIRtF9qsqXtGi4,Pons i Bartumeu 2,42.5084627,1.5327192,"['jewelry_store', 'store', 'point_of_interest', 'establishment']",4.0,"Av. Meritxell, 97, AD500 Andorra la Vella, Andorra",a6ac8a08b72dc35690c62cfd61f9d4df31c0dffc,"Avinguda Meritxell, 97, Andorra la Vella"
ChIJ9a3mKfL0pRIRyln4FyLLJIc,Colegi Español María Moliner,42.4873345,1.4897659,"['school', 'point_of_interest', 'establishment']",5.0,"Carrer Tossalet i Vinyals, 47, AD500 Andorra la Vella, Andorra",a872d218f9332ea3b8e5f0d2c227575fcf9beed4,"Carrer Tossalet i Vinyals, 47, Andorra la Vella"
ChIJ7x-JFplgrxIReOPygAY_CwY,Apartaments Turístics Prat de les Mines,42.60038,1.5329439,"['lodging', 'point_of_interest', 'establishment']",3.5,"Av. de les Ferreres, AD300 Ordino, Andorra",cf8f1992dacff7b602d450454b2faa49b76dc4c3,"Avinguda de les Ferreres, Ordino"
ChIJoUsEeNuKpRIRhCWa4xe5SuI,Swatch,42.50886669999999,1.5348117,"['store', 'point_of_interest', 'establishment']",,"Av. Carlemany, 70, AD700 Escaldes-Engordany, Andorra",4ae477b85c4d44e5f29adc4541dede3eb4cdacb3,"Avinguda Carlemany, 70, Escaldes-Engordany"
ChIJIxhBX9yKpRIR9Px2HB2ZCWQ,Diamant Difusió,42.50875,1.536841,"['jewelry_store', 'store', 'point_of_interest', 'establishment']",,"Av. Carlemany, 54, AD700 Escaldes-Engordany, Andorra",ad0cdde48535fafaf89c285ce746645de88c8222,"Avinguda Carlemany, 54, Escaldes-Engordany"
ChIJl2KajHxfrxIRpjyEjJEARX8,Parc Infantil Pal,42.54528870000001,1.4745558,"['premise', 'point_of_interest', 'establishment']",,"AD400 Pal, Andorra",7683cf6cff7a82f4f45c539b97711dd0b18c681b,Pal
ChIJUQzjjXn2pRIRUMKLu-L6AAo,Os de Civís,42.5103805,1.4395426,"['locality', 'political']",,"25788 Os de Civís, Lleida, Spain",59cefd6f2c5560f39b8e1df39c231b1abca941a7,Os de Civís
ChIJfZrmgd2KpRIR8HYIVtK0X6s,Perruqueria BOHEMIA,42.508747,1.539989,"['hair_care', 'point_of_interest', 'establishment']",,"Av. Carlemany, 38, AD700 Escaldes-Engordany, Andorra",cf11f9687329fa84df9322050773878cf96fcc15,"Avinguda Carlemany, 38, Escaldes-Engordany"
ChIJ____qNaKpRIR3XrYaA7NmsI,Parc Central,42.5057982,1.525383,"['park', 'point_of_interest', 'establishment']",4.2,"AD500 Andorra la Vella, Andorra",f13b6db7411ce592d2c487e64a739d26d9cdb40c,
ChIJc0et79CKpRIRfblJ52iNSq0,JORMABIKE EXPERIENCE,42.5081882,1.5288788,"['bicycle_store', 'store', 'point_of_interest', 'establishment']",2.8,"Carrer Bonaventura Armengol, 10, AD500 Andorra la Vella, Andorra",113164484c63391e0b1ae959095c1ea860561de1,"Carrer Bonaventura Armengol, 10, Andorra la Vella"
ChIJsynN_XKKpRIRojgOShCyJL4,Aprt. Del Meligar,42.5324998,1.5766542,"['lodging', 'point_of_interest', 'establishment']",4.0,"Carrer de la Vena, 9, AD200 Encamp, Andorra",5fe415859c834c86ccb8cb242895bcaf6a603eec,"Carrer de la Vena, 9, Encamp"
ChIJySHH9dj0pRIRZ9esep0zWSA,Pneumàtics Sam,42.5004971,1.5086565,"['car_repair', 'store', 'point_of_interest', 'establishment']",4.5,"Av. de Santa Coloma, 104, AD500 Andorra la Vella, Andorra",5a5f04e16778570f75f64e2332af684fa1d6ca34,"Avinguda de Santa Coloma, 104, Andorra la Vella"
ChIJ_bkG5-eKpRIRZzlFpUt8ypM,E.S. Motors,42.5107632,1.5413136,"['car_dealer', 'store', 'point_of_interest', 'establishment']",5.0,"Av. de les Escoles, 20, AD700 Escaldes-Engordany, Andorra",69422d5b3d3289bbf07103d7c29e1186bd3ec854,"Avinguda de les Escoles, 20, Escaldes-Engordany"
ChIJL6fO3g6KpRIRpIo0e52V4v8,Torre Valentina-Vacances Pirinenca,42.534181,1.5860672,"['lodging', 'point_of_interest', 'establishment']",5.0,"Av. de François Mitterrand, 71, AD200 Encamp, Andorra",958aedc4f7f035be91c7f9c39f5402ce15636b59,"Avinguda de François Mitterrand, 71, Encamp"
ChIJt7fKUtuKpRIR6yqs45btAA0,Casanova Immobiliària,42.511292,1.534864,"['real_estate_agency', 'point_of_interest', 'establishment']",3.7,"4-6, planta 2ª Despatx 2, Carrer Manel Cerqueda I Escaler, AD700 Escaldes-Engordany, Andorra",aa82c67bd9c22c28e1c48e0e546df03f7e860608,"4-6, planta 2ª Despatx 2, Carrer Manel Cerqueda I Escaler, Escaldes-Engordany"
ChIJAxAG62mGpRIRczrUXdkmR9M,Prat Xuixirà,42.4784201,1.7013986,"['park', 'point_of_interest', 'establishment']",5.0,"25726 Lles de Cerdanya, Lleida, Spain",0f155f911d4749f39514a85299fb4fd083d9ff7e,Lles de Cerdanya
ChIJqYqWV4thrxIREHGZkXCUAAo,Prats,42.5602139,1.5936217,"['locality', 'political']",,"AD100 Prats, Andorra",78d9b2059b4364e2a2aaca44888be5982d7642e8,Prats
ChIJ3cJJm9uKpRIRS9voedDAd30,Farmàcia Galeno,42.5083445,1.5347461,"['pharmacy', 'store', 'health', 'point_of_interest', 'establishment']",4.7,"AD700 Les Escaldes, Andorra",f409a71777d6cf71c03968babf9c5ed29a42b64f,Les Escaldes
ChIJNfxSuiz1pRIR3eDbn-0xpZo,Casa Bella,42.50738020000001,1.520114,"['store', 'point_of_interest', 'establishment']",5.0,"Av. Príncep Benlloch, 15, AD500 Andorra la Vella, Andorra",a3620be1a0b09c8aa1fee9f8fec4cb494ceb90d9,"Avinguda Príncep Benlloch, 15, Andorra la Vella"
ChIJ0YkMbIt9rxIRO_wlOaCkl4Y,CROISSANT EXPRESS,42.54182,1.732873,"['cafe', 'store', 'food', 'point_of_interest', 'establishment']",4.2,"Carrer Catalunya, 10, AD200 Pas de la Casa, Andorra",b1b8c3b118456f33e9e8097e2d5704f1e94f4ea7,"Carrer Catalunya, 10, Pas de la Casa"
ChIJ17G5K-hdrxIRzJdzkbl8HZM,Cs-380 Parking,42.6315559,1.501697,"['parking', 'point_of_interest', 'establishment']",,"Cs-380, AD400 La Massana, Andorra",7464f314a883d9b39e8088ce1e76c52fd96937f4,"Cs-380, La Massana"
ChIJczdm5ueKpRIRCMLYo27iqLI,Hotel Kyriad Andorre,42.510715,1.541205,"['lodging', 'point_of_interest', 'establishment']",2.8,"Av. De Les Escoles, 29, AD700 Escaldes-Engordany, Andorra",b04481bce0489d167e73f99a278a145a03412c49,"Av. De Les Escoles, 29, Escaldes-Engordany"
ChIJ7Um0EwyKpRIRV47DRUspArE,"RESTAURANT ""CAN FONTBERNAT"" APARTAMENTS TURÍSTICS",42.534384,1.582852,"['food', 'point_of_interest', 'establishment']",,"Carrer del Tremat, 12, AD200 Encamp, Andorra",979e3e361cf3f183e4c933316f1d02c563eca4bc,"Carrer del Tremat, 12, Encamp"
ChIJgbbWy5z0pRIR253GdWo5CR4,Centre Pilates Andorra,42.46628580000001,1.4921082,"['gym', 'health', 'point_of_interest', 'establishment']",5.0,"Av. Verge de Canòlich, AD600 Sant Julià de Lòria, Andorra",b19937baf0202edeb39f75a1563dfdff16177575,"Avinguda Verge de Canòlich, Sant Julià de Lòria"
ChIJibeM4xpfrxIRAqCG9PZmbfc,Esports Sant Moritz 3 - Pistes,42.573128,1.470886,"['store', 'point_of_interest', 'establishment']",4.7,"Carretera de les Pistes, Edifici Comallemple, AD400 Arinsal, Andorra",229dc6df7a6db2d9c5935a1abe1c0dd68d7d217a,"Carretera de les Pistes, Edifici Comallemple, Arinsal"
ChIJry_DZSn1pRIR173XlfWdufE,DINAMIC BOXA,42.5050884,1.5155444,"['gym', 'health', 'point_of_interest', 'establishment']",5.0,"Baixada del Molí, 48 1r, AD500 Andorra la Vella, Andorra",2c841f42b40826af0dd762a4c22e2411ab109a96,"Baixada del Molí, 48 1r, Andorra la Vella"
ChIJtd1WPtqKpRIRdvcsEmUbzuw,FotoCineColor,42.508952,1.528697,"['electronics_store', 'home_goods_store', 'store', 'point_of_interest', 'establishment']",4.6,"Av. Meritxell, 67, AD500 Andorra la Vella, Andorra",9ab6d15a8b68fc7cc6094b2c24a3f3c29be635b8,"Av. Meritxell, 67, Andorra la Vella"
ChIJieNft9CKpRIRcGE0VM7TI1s,La grandalla d'or,42.507069,1.529564,"['jewelry_store', 'store', 'point_of_interest', 'establishment']",5.0,"Carrer de l'Aigüeta, 16, AD500 Andorra la Vella, Andorra",a4622d37eac64325edb2414572ece3928728b4cb,"Carrer de l'Aigüeta, 16, Andorra la Vella"
ChIJ8bEFxQuKpRIRn1tsly1z0YY,KYNOS Centre Mèdic Esportiu,42.53687600000001,1.583116,"['health', 'point_of_interest', 'establishment']",,"Av. de François Mitterrand, 9, AD200 Encamp, Andorra",91c68b0505bc261778fe31971eab47c1879b9e8d,"Avinguda de François Mitterrand, 9, Encamp"
ChIJk3fbhHnzpRIRIC4EOQv3Cis,Estació de Servei Meroil,42.455065,1.486377,"['gas_station', 'point_of_interest', 'establishment']",,"River Centre Comercial, CG 1, AD600 Sant Julià de Lòria, Andorra",cc25a20bb5992118c3b0fb8622031b9aa59a4e60,"River Centre Comercial, CG 1, Sant Julià de Lòria"
ChIJhc1vkPtfrxIRWrdLjc3lk7U,Església del Pui,42.5476742,1.5153263,"['church', 'place_of_worship', 'point_of_interest', 'establishment']",,"AD400 La Massana, Andorra",60b92d6aa5268f6f91acb001543fac59540d91bc,La Massana
ChIJ80NJpIqKpRIRiNKRmH9NNUQ,Estació de Servei CEPSA Enclar Carburants Andorrans,42.5215817,1.5592441,"['gas_station', 'point_of_interest', 'establishment']",4.0,"AD200 Encamp, Andorra",d493e69d6daf7def5d3490cb0001b20a06935fd7,Encamp
ChIJuT6ZbTpgrxIReEuAGRREWM8,Hotel Ordino,42.55382879999999,1.5492531,"['lodging', 'point_of_interest', 'establishment']",,"Ctra. del Coll d'Ordino, AD300 Ordino, Andorra",a9624f6cd96d703939fe9e397418b604efdca8b3,"Carretera del Coll d'Ordino, Ordino"
ChIJlbRb2a2SpRIRY7iRjITpcM4,Sant Vicens d'Estamariu,42.3754751,1.5254261,"['church', 'place_of_worship', 'point_of_interest', 'establishment']",,"25719 Estamariu, Lleida, Spain",544d12e03a71221c3b69cc0c60b514ab41724c5a,Estamariu
ChIJJ8gXfwuKpRIRWYsOoAy6qhI,Parc de la Gent Gran,42.5352636,1.5811962,"['park', 'premise', 'point_of_interest', 'establishment']",,"AD200 Encamp, Andorra",0ffbee0bdb62150d57b6e494452f6a922abe6971,Encamp
ChIJwWup2h1jrxIRqGzBvLk052E,GRUP FITA Finques Immobiliàries del Tarter,42.580135,1.651197,"['real_estate_agency', 'point_of_interest', 'establishment']",3.0,"Urb. Sant Pere d Ed. Querol, local 2. El Tarter., AD100 El Tarter, Andorra",2830dcdee0f719ee32c2fb9ceef3db97106e8082,"Urb. Sant Pere d Ed. Querol, local 2. El Tarter., El Tarter"
ChIJ7-JSXNj0pRIRtzIvcfdescc,autoelectric BRAVO,42.50043549999999,1.5091855,"['car_repair', 'point_of_interest', 'establishment']",,"Av. de Santa Coloma, 85, AD500 Andorra la Vella, Andorra",e4eda39aecf3e78f1d36c5fc8022bc2e4c127514,"Avinguda de Santa Coloma, 85, Andorra la Vella"
ChIJVZrCM5GPpRIR2_QP39nE0TE,Arànser,42.4081041,1.6619501,"['locality', 'political']",,"25726 Arànser, Lleida, Spain",b4fbc8836efe155242133be7b165d220492c7fae,Arànser
ChIJT3SGucSKpRIR1NQkglJm_no,Saux Quiropràctic Andorra/Escaldes,42.512033,1.534463,"['health', 'point_of_interest', 'establishment']",5.0,"19, Carrer dels Escalls, Baixos, AD700 Escaldes-Engordany, Andorra",4a52aa85dfd900fd3f8276aba2c7cadcbceb2231,"19, Carrer dels Escalls, Baixos, Escaldes-Engordany"
ChIJsynN_XKKpRIRT_qEsm1-dTc,SeriesBike,42.532497,1.576744,"['bicycle_store', 'store', 'point_of_interest', 'establishment']",,"Carrer de la Vena, 9, AD200 Encamp, Andorra",29e5ecadb71f86976aa90217f8f8a9b6b8d489c1,"Carrer de la Vena, 9, Encamp"
ChIJc0oG5Ix9rxIRxvUqDPyohoI,Centre Esportiu i Sociocultural del Pas de la Casa,42.5449406,1.7328619,"['stadium', 'point_of_interest', 'establishment']",4.4,"AD200 Encamp, Andorra",0a8ea75c9bebd1e17c8e2d14a3479fccda72d1fb,Encamp
ChIJMaqs8NZfrxIRTJtnpIxP9mo,Parc Infantil,42.5734286,1.5181382,"['premise', 'point_of_interest', 'establishment']",,"AD300, Andorra",1decdf41260bd1a3764649b326fd8298bfcc8a53,
ChIJTUsigNSKpRIRlEj33GpRZDA,Gran Rodizio Andorra,42.5065185,1.5231982,"['restaurant', 'food', 'point_of_interest', 'establishment']",,"Carrer Prat de la Creu, 59, AD500 Andorra la Vella, Andorra",858639f3963ccf24dfb847e8d626a772b789a342,"Carrer Prat de la Creu, 59, Andorra la Vella"
ChIJkdkLdtuKpRIRY8nwPNS3JpU,Restaurant De Productes Italians,42.50890460000001,1.5344935,"['restaurant', 'food', 'point_of_interest', 'establishment']",,"Av. del Consell de la Terra, 14, AD700 Escaldes-Engordany, Andorra",cbc0540e49bfbc83f2ca67b3dfb3e4d6a59f1c7a,"Avinguda del Consell de la Terra, 14, Escaldes-Engordany"
ChIJef9-sYx9rxIRPenxT45hhMQ,Hotel de Les Neus,42.54294100000001,1.734292,"['bar', 'lodging', 'restaurant', 'food', 'point_of_interest', 'establishment']",3.7,"Carrer Comtes de Foix, 2, AD200 Pas de la Casa, Andorra",191a130fb72d33269b0cf5c7e5716ed920b85668,"Carrer Comtes de Foix, 2, Pas de la Casa"
ChIJB9zsTMOKpRIRFQSYYE-Wt6M,Escola de Música del Comú d'Escaldes-Engordany,42.5114053,1.5361577,"['school', 'point_of_interest', 'establishment']",,"AD700 Les Escaldes, Andorra",c97d53654c58a4fe08d145b1de21f3f1738b6962,Les Escaldes
ChIJpQ0z05z0pRIRLJS1UUT7bvs,MERCERIA EL PUNT,42.465647,1.491831,"['store', 'point_of_interest', 'establishment']",,"AD600 Sant Julià de Lòria, Andorra",f61bf9e9cecb977c244155e1491b5573a1bdcc42,Sant Julià de Lòria
ChIJXTgDtIx9rxIRJsHSlTbdCKE,Hotel Panda,42.5434168,1.7333955,"['lodging', 'point_of_interest', 'establishment']",3.6,"AD200 El Pas de la Casa, Andorra",49dd9401f4026b2aa82f39a01a55c40685cdb9b9,Andorra
ChIJrzI09xpfrxIRkSIp2tSoSHE,Polar Bar Restaurant,42.572719,1.470343,"['bar', 'restaurant', 'food', 'point_of_interest', 'establishment']",4.2,"Estación d'Esquí d'Arinsal, Ed. Comallempla, Vallnord, AD400 Arinsal, Andorra",99ab0000feb50d6baec7832fa1506e45fc576763,"Estación d'Esquí d'Arinsal, Ed. Comallempla, Vallnord, Arinsal"
ChIJMUDyVyj1pRIR9jUai3dD72g,Electricitat PRESTIGI,42.504162,1.5130287,"['electrician', 'point_of_interest', 'establishment']",5.0,"C/bonavista n.21 Esc.A, AD500 Andorra la Vella, Andorra",eff4f51ff7874bdd831977f564b2d17e4a7c107f,"C/bonavista n.21 Esc.A, Andorra la Vella"
ChIJQWRSDtGKpRIR6xDGKQ2v6qk,Rey Shoes,42.5084462,1.5273577,"['shoe_store', 'store', 'point_of_interest', 'establishment']",5.0,"Av. Meritxell, 47, AD700 Andorra la Vella, Andorra",2cce1be8867249bfd454d2b685a56739db9bdd29,"Avinguda Meritxell, 47, Andorra la Vella"
ChIJn3qtRZv0pRIROZRyzpIWFFY,Alimentació Bon Area Sant Julià,42.4685226,1.4922984,"['store', 'food', 'point_of_interest', 'establishment']",4.0,"Av. Rocafort, AD600 Sant Julià de Lòria, Andorra",1097ab93872c9dcd1f17786e5f8be01b52cc7503,"Avinguda Rocafort, Sant Julià de Lòria"
ChIJ-zjwd9qKpRIRSDNncJTWDnc,Desigual Store Andorra,42.5081679,1.5305378,"['clothing_store', 'store', 'point_of_interest', 'establishment']",4.5,"Av. Meritxell, 94, AD500 Andorra la Vella, Andorra",bd018de42aa7049bd750967aa2f0fec296badc28,"Avinguda Meritxell, 94, Andorra la Vella"
ChIJzyxpCCdirxIRywxwssJrGlE,Pueblo en la montaña - WIFI,42.5666809,1.6001578,"['lodging', 'point_of_interest', 'establishment']",,"Av. Sant Joan de Caselles, 46 Edifici Areny, Esc A, 1-3, AD100 Canillo, Andorra",e2184b272fd374d610ccf188089844006b031bb7,"Av. Sant Joan de Caselles, 46 Edifici Areny, Esc A, 1-3, Canillo"
ChIJlX1h-_qKpRIRZ-RxhwLXhjY,ECOHOUSE Andorra l'Esquirol 2,42.5084446,1.5508624,"['general_contractor', 'point_of_interest', 'establishment']",,"Urbanització de la Solana, 75, AD700 Escaldes-Engordany, Andorra",552e283667d8ac182fc4e0c16f7e3358bd0e37c3,"Urbanització de la Solana, 75, Escaldes-Engordany"
ChIJ_UHVknxfrxIRoIWsHsCYv-4,Aparcament,42.5451936,1.4741412,"['parking', 'point_of_interest', 'establishment']",3.0,"AD400 La Massana, Andorra",7cdaa8732bae38ac2f6bb3617826040fdebf1d83,La Massana
ChIJA0eaFJv0pRIRvsBAs2rjQFs,Natur House,42.469003,1.493304,"['store', 'health', 'point_of_interest', 'establishment']",,"Av. Verge de Canòlich, 82, AD600 Sant Julià de Lòria, Andorra",3460c72b56c70ac020c47217d0202ef09e597bf5,"Avinguda Verge de Canòlich, 82, Sant Julià de Lòria"
ChIJQzeSWIx9rxIR-_0R9rtZ3Tg,La Taverna Americana,42.54446,1.731922,"['restaurant', 'food', 'point_of_interest', 'establishment']",,"Plaça dels Coprínceps, 29, AD200 Encamp, Andorra",bc44240fd983108016cd6327097b211e238f37b5,"Plaça dels Coprínceps, 29, Encamp"
ChIJd7GzpNCKpRIR-nnOWSBYrpo,D' ART ANDORRA,42.5073243,1.5299536,"['store', 'point_of_interest', 'establishment']",4.5,"Carrer Joan Maragall, 12, AD500 Andorra la Vella, Andorra",1bc4ee48074cb1a08c44446030be7f0243d8398d,"Carrer Joan Maragall, 12, Andorra la Vella"
ChIJwdi6GdOKpRIRe9Twc0QuMF0,PELLETERIA ARIES,42.508507,1.5222711,"['clothing_store', 'store', 'point_of_interest', 'establishment']",,"Carrer Mossèn Cinto Verdaguer, 2, AD500 Andorra la Vella, Andorra",66088994887f5869e48e9d46af61e4e3975417ad,"Carrer Mossèn Cinto Verdaguer, 2, Andorra la Vella"
ChIJmX-BJtuKpRIRHWAwNFogTlg,Apartaments Fragata,42.51053019999999,1.5332608,"['lodging', 'point_of_interest', 'establishment']",,"Av. Dr. Mitjavila, 42, AD500 Andorra la Vella, Andorra",2376f4acd5f6d51c5261968ec8ab10afc2d57bd1,"Avinguda Doctor Mitjavila, 42, Andorra la Vella"
ChIJe3NvE4t9rxIRwafuncdrHG8,Hotel Residencia d'en Valira,42.5413964,1.7324009,"['lodging', 'point_of_interest', 'establishment']",1.0,"AD200 El Pas de la Casa, Andorra",6291b8eb958c900e0c96f5e4dfa2d042f35d222c,El Pas de la Casa
